Severity,Date/Time,Latitude,Longitude,City,State,Number,Street,Description
2,2020-12-12 00:26:02,45.6964,-111.1855,Bozeman,MT,1752, Jackrabbit Ln,Incident on JACKRABBIT LN near BAXTER LN Drive with caution.
2,2020-12-11 15:26:02.000000000,48.1143,-114.601,Kila,MT,7399, US Highway 2 W,Incident on IDAHO HILL RD near US-2 Drive with caution.
2,2020-12-24 21:55:40,48.2404,-114.3203,Kalispell,MT,748, W Reserve Dr,Incident on RESERVE DR near COUNTRY WAY Drive with caution.
2,2020-10-22 15:17:30,45.6557,-110.8494,Bozeman,MT,,I-90 E,Stationary traffic on I-90 from Trail Creek Rd/Exit 316 (I-90) to Jackson Creek Rd/Exit 319 (I-90) due to accident.
2,2020-10-25 01:31:30,45.7705,-108.4869,Billings,MT,,I-90 E,Slow traffic on I-90 from MT-3/S 27th St/Exit 450 (I-90) to I-90 Bus/US-87/Exit 452 (I-90) due to accident.
2,2020-10-25 03:58:07,46.8328,-113.8239,Missoula,MT,,I-90 E,Incident on I-90 EB near MULLAN RD Drive with caution.
2,2020-10-23 17:22:05.000000000,47.7473,-114.2299,Polson,MT,2, Ranch Rd,Incident on US-93 near RANCH RD Drive with caution.
2,2020-11-13 22:42:18,47.1729,-114.8632,Superior,MT,,I-90 E,Incident on I-90 EB near RIVER BEND RD Drive with caution.
2,2020-10-26 15:09:50,45.7148,-111.1032,Bozeman,MT,2849, Harper Puckett Rd,Incident on HARPER PUCKET RD near HIDDEN VALLEY RD Drive with caution.
2,2018-08-21 13:56:52,46.2674,-106.4285,Rosebud,MT,,I-94 E,At Butte CR Rd/Exit 105 - Accident.
2,2020-12-16 08:32:03,47.3508,-115.2913,Saint Regis,MT,,I-90 E,Incident on I-90 EB near MM 18 Drive with caution.
2,2020-10-26 13:57:51,46.5471,-111.9477,Clancy,MT,,I-15 N,Incident on I-15 NB near MM 187 Drive with caution.
2,2020-12-30 16:10:45,48.2731,-114.2642,Kalispell,MT,3305, US Highway 2 E,Incident on US-2 near BOBCAT LN Drive with caution.
2,2020-11-18 01:43:13,46.7094,-112.1763,Helena,MT,6175, Birdseye Rd,Incident on BIRDSEYE RD near HICKORY RD Drive with caution.
2,2020-12-01 02:35:18,48.3257,-114.3358,Whitefish,MT,4567, Highway 93 S,Incident on US-93 near MEADOW LN Drive with caution.
2,2019-02-06 07:43:27,47.8335,-114.3472,Elmo,MT,31525, US Highway 93,At MT-28 - Accident. Roadway reduced to 1 lane. Lane blocked. Police activity ongoing.
2,2020-10-22 16:37:04,45.6855,-109.4618,Reed Point,MT,,I-90 W,Incident on I-90 WB near MM 400 Drive with caution.
2,2020-10-18 22:52:00,45.6653,-108.7577,Laurel,MT,,US-212 E,Incident on I-90 EB near LAUREL Expect long delays.
3,2017-03-02 03:07:11,45.4002,-105.3621,Broadus,MT,,US Highway 212,Between MT-59 (East) and MT-39 - Accident. Roadway reduced to 1 lane.
2,2020-12-18 09:45:13.000000000,48.3635,-114.1428,Columbia Falls,MT,598, Mabel St,Incident on BERNE RD near COLUMBIA MOUNTAIN RD Expect delays.
2,2017-02-05 09:15:32,47.0172,-114.6414,Alberton,MT,,I-90 W,At Fish CR Rd/Exit 66 - Accident.
2,2020-12-11 04:56:02,47.5229,-111.2816,Black Eagle,MT,1500, N River Rd,Incident on RIVER RD near 15TH ST Drive with caution.
2,2020-10-14 13:03:03,48.6793,-106.4793,Richland,MT,3677, MT Highway 24 N,Incident on MT-24 near ASLESON RD Drive with caution.
2,2020-09-25 04:37:04,47.2502,-112.1249,Wolf Creek,MT,,US Highway 287,Incident on MT-434 near MT-200 Drive with caution.
2,2020-11-07 12:38:31.000000000,47.8098,-112.1864,Choteau,MT,1, 3rd Ave NW,Incident on US-287 near 3RD ST Drive with caution.
2,2020-11-15 05:58:11,47.5042,-114.0969,Ronan,MT,35201, Bouchard Rd,Incident on US-93 near BOUCHARD RD Drive with caution.
2,2020-11-06 17:05:18,46.0235,-112.5415,Butte,MT,,Idaho St,Incident on IDAHO ST near MISSOULA AVE Drive with caution.
4,2017-07-13 13:42:16,46.2184,-107.2505,Forsyth,MT,,I-94 E,Closed at US-10/US-312/MT-311/Exit 67 - Road closed due to accident.
2,2016-12-14 07:22:10,47.5595,-111.5304,Power,MT,,MT-200,At US-89/MT-200/Exit 290 - Accident.
2,2020-11-18 20:50:47.000000000,46.9923,-114.4402,Alberton,MT,,I-90 W,Incident on I-90 WB near MM 77 Drive with caution.
2,2020-10-28 00:45:51,45.6297,-110.5805,Livingston,MT,15, Shamrock Ln,Incident on MILLER DR near SHAMROCK LN Drive with caution.
2,2017-09-08 13:54:06,47.4349,-111.5039,Great Falls,MT,,I-15 S,At Center St/Exit 270 - Accident.
2,2020-11-11 00:20:54,44.5614,-112.325,Lima,MT,,I-15 S,Incident on I-15 SB near MM 0 Drive with caution.
2,2020-10-12 22:00:43,48.2337,-106.5665,Glasgow,MT,,MT Highway 24 N,Incident on MT-24 near JOHNSON RD Expect delays.
2,2020-12-20 18:35:01,48.4216,-114.4635,Whitefish,MT,,Beaver Lake Rd,Incident on BEAVER LAKE RD near US-93 Drive with caution.
2,2020-12-28 20:46:43,46.5128,-114.0901,Stevensville,MT,3885, Eastside Hwy,Incident on EASTSIDE HWY near MT-203 Drive with caution.
2,2020-11-11 20:04:08,48.2687,-114.2665,Kalispell,MT,3154, US Highway 2 E,Incident on ROUND BOY CT near US-2 Drive with caution.
2,2020-12-16 16:28:26,48.2692,-114.4173,Kalispell,MT,3197, Farm To Market Rd,Incident on FARM TO MARKET RD near CLARK DR Drive with caution.
2,2020-11-23 04:27:26.000000000,46.3081,-111.6363,Winston,MT,,NFD Road 360,Incident on INDIAN CREEK RD near NFD ROAD 360 Expect delays.
2,2018-04-02 05:52:54,46.2021,-112.3404,Boulder,MT,,I-15 N,At Nez Perce Rd/Exit 138 - Accident involving heavy truck. Right lane blocked.
2,2020-10-27 21:32:57,48.1822,-114.3587,Kalispell,MT,104, Buckboard Ln,Incident on BUCKBOARD LN near FOYS LAKE RD Drive with caution.
2,2020-11-23 23:52:06.000000000,47.5151,-114.0397,Ronan,MT,33401, Timberlane Rd,Incident on TIMBERLANE RD near MOUNTAIN ESTATES DR Drive with caution.
2,2020-11-06 18:59:23,45.4956,-111.2746,Gallatin Gateway,MT,,Spanish Creek Rd,Incident on SPANISH CREEK RD near GALLATIN RD Drive with caution.
2,2020-11-08 15:25:42,45.6582,-109.3058,Columbus,MT,,I-90 W,Incident on I-90 WB near MM 426 Drive with caution.
2,2020-11-26 00:43:27,45.7226,-111.0764,Bozeman,MT,,I-90 W,Incident on I-90 WB near BOZEMAN Drive with caution.
2,2020-11-29 03:09:05,47.6884,-114.0918,Polson,MT,9287, Haack Rd,Incident on HAACK RD near MT-35 Drive with caution.
2,2020-10-18 19:06:57,44.7819,-111.1133,West Yellowstone,MT,22698, Hebgen Lake Rd,Incident on US-287 near US-191 Drive with caution.
2,2020-10-27 13:24:50,45.8677,-111.0911,Belgrade,MT,3801, Reese Creek Rd,Incident on REESE CREEK RD near SPRINGHILL RD Drive with caution.
2,2020-12-29 11:49:44,46.8204,-114.0003,Missoula,MT,203, Dean Stone Dr,Incident on RIMEL RD near WHITAKER DR Drive with caution.
2,2020-11-30 21:10:28,47.2963,-115.1693,Saint Regis,MT,,I-90 W,Incident on I-90 WB near MM 30 Drive with caution.
2,2020-11-20 15:49:05,45.5669,-110.5591,Livingston,MT,3001, E River Rd,Incident on RIVER RD near SUCE CREEK RD Drive with caution.
2,2020-10-19 13:18:38,45.6362,-108.9047,Park City,MT,,I-90 E,Incident on I-90 EB near POPE RD Drive with caution.
3,2018-02-05 22:28:27,45.4742,-108.9999,Joliet,MT,9459, US Highway 212,At Columbus - Accident. Single alternate lane traffic.
2,2020-12-12 06:29:05,45.6628,-108.7691,Laurel,MT,,I-90 W,Incident on I-90 WB near US-212 Drive with caution.
2,2020-10-11 04:44:58.000000000,48.079,-114.222,Somers,MT,25, Kraft Ave,Incident on KRAFT AVE near BURNELL AVE Drive with caution.
2,2017-01-31 09:52:59,45.8822,-108.3129,Huntley,MT,,I-94 E,Between MT-522/Exit 6 and Arrow Creek Rd/Exit 14 - Accident.
2,2020-11-01 20:56:41,46.9652,-114.145,Missoula,MT,10597, Waldo Rd,Incident on WALDO RD near TOOKIE TREK Drive with caution.
2,2020-11-30 04:28:28,46.6116,-111.9146,East Helena,MT,3399, Grandview Rd,Incident on GRANDVIEW RD near VALLEY DR Drive with caution.
2,2020-10-18 23:30:57,45.6647,-110.8371,Bozeman,MT,,I-90 W,Incident on I-90 WB near MM 319 Drive with caution.
2,2020-12-03 15:25:29,46.7149,-112.0633,Helena,MT,7749, Green Meadow Dr,Incident on GREEN MEADOW DR near BROOKINGS RD Drive with caution.
2,2020-11-11 17:07:08,46.5017,-111.9627,Clancy,MT,26, Whitetail Ln,Incident on WHITETAIL LN near GREENWOOD TRL Drive with caution.
2,2020-12-11 21:45:33.000000000,45.6578,-110.7671,Livingston,MT,,I-90 W,Slow traffic on I-90 W - US-191 S from Flynn Creek Rd/Exit 327 (I-90) to Jackson Creek Rd/Exit 319 (I-90) due to accident.
2,2020-10-20 15:45:29,46.733,-113.9189,Clinton,MT,14810, Miller Creek Rd,Incident on MILLER CREEK RD near SPOONER CREEK RD Expect delays.
2,2020-12-07 14:04:00,45.7966,-108.4707,Billings,MT,,US Highway 87 E,Slow traffic on US-87 N - I-90 Bus W - US-87 S - I-90 Bus E from Montana Rail Link to N 9th St due to accident.
2,2020-10-11 18:07:25,47.0305,-114.3218,Huson,MT,23113, Huson Rd,Incident on MELLIE CT near HUSON RD Drive with caution.
4,2017-10-13 17:28:09,48.2589,-114.2715,Kalispell,MT,2924, US Highway 2 E,Closed at Whitefish - Road closed due to accident.
2,2020-12-14 16:55:54,46.8832,-113.9941,Missoula,MT,,I-90 W,Incident on I-90 WB near MM 104 Expect delays.
2,2020-11-30 06:07:28,46.1488,-107.4506,Bighorn,MT,,I-94 E,Incident on I-94 EB near MM 53 Drive with caution.
2,2020-10-29 02:47:52,44.9037,-112.8219,Dillon,MT,,I-15 S,Incident on I-15 SB near MM 37 Drive with caution.
2,2020-10-18 13:00:57,45.6625,-108.7696,Laurel,MT,,I-90 E,Incident on I-90 EB near US-212 Drive with caution.
2,2020-11-26 04:34:27,45.7021,-110.838,Bozeman,MT,3368, Jackson Creek Rd,Incident on JACKSON CREEK RD near RIDGE RD Drive with caution.
2,2019-02-06 10:37:27,47.0318,-114.319,Huson,MT,,I-90 W,At Frenchtown Frontage Rd/Exit 85 - Accident. Roadway reduced to 1 lane.
2,2020-11-24 01:14:41,46.2672,-106.4778,Forsyth,MT,,I-94 W,Incident on I-94 WB near MM 103 Expect delays.
2,2020-11-19 01:49:04,45.6443,-110.5725,Livingston,MT,,I-90 E,Incident on I-90 EB near MM 333 Drive with caution.
2,2020-11-09 10:40:27,46.0088,-112.625,Butte,MT,,I-15 S,Incident on I-15 NB near MM 122 Drive with caution.
2,2020-11-08 16:38:27,46.2674,-106.3514,Rosebud,MT,,I-94 E,Incident on I-94 EB near US-12 Expect delays.
2,2017-10-18 09:30:24,46.8366,-114.0395,Missoula,MT,3735, Reserve St,At Brooks St - Accident.
2,2017-02-23 08:28:48,47.5109,-111.3475,Great Falls,MT,,US-89 S,At I-15-BR/Central Ave/Exit 280 - Accident.
2,2020-12-30 02:13:45,47.4101,-114.0756,Saint Ignatius,MT,8698, Delaney Way,Incident on DELANEY WAY near MCDONALD LAKE RD Drive with caution.
2,2020-12-06 01:06:34.000000000,45.2781,-113.1209,Dillon,MT,31241, MT Highway 278,Incident on POLARIS RD near MT-278 Drive with caution.
2,2020-12-29 06:31:12,46.5216,-114.1097,Stevensville,MT,3899, Almost Home Dr,Incident on ALMOST HOME DR near STEVENSVILLE CUTOFF RD Drive with caution.
2,2020-12-11 15:31:00,47.5472,-111.4582,Great Falls,MT,,I-15 N,Incident on I-15 NB near VAUGHN Expect delays.
2,2019-02-06 13:37:28,47.0149,-114.4072,Alberton,MT,,I-90 E,At Nine Mile Rd/Exit 82 - Accident. Lane blocked.
2,2020-12-14 15:07:16,45.5838,-111.1952,Bozeman,MT,17296, Cottonwood Rd,Incident on COTTONWOOD RD near GALLATIN RD Drive with caution.
2,2020-11-02 15:32:20.000000000,45.9386,-112.4928,Butte,MT,490, Shoe String Annie,Incident on SHOESTRING ANNIE RD near ALBANY AVE Expect delays.
2,2020-12-19 01:21:48,48.1969,-114.3406,Kalispell,MT,1385, US Highway 2 W,Incident on US-2 near US-93 Drive with caution.
2,2020-12-12 06:20:02,46.9176,-112.12,Wolf Creek,MT,,I-15 N,Incident on I-15 NB near US-287 Expect delays.
2,2019-11-08 08:15:35,45.9023,-112.2223,Whitehall,MT,,I-90 W,At Delmoe Lake Rd/Exit 241 - Accident. Roadway reduced to 1 lane.
2,2020-10-31 13:20:20,45.6383,-111.1819,Bozeman,MT,701, Blackwood Rd,Incident on BLACKWOOD RD near LEHRKIND WAY Expect delays.
2,2020-10-10 15:55:30,45.7064,-110.9983,Bozeman,MT,3826, Bridger Canyon Rd,Queuing traffic on MT-86 from Boylan Rd to Brass Lantern Ct due to accident.
2,2020-11-19 22:56:58,47.257,-111.7089,Cascade,MT,,I-15 N,Incident on I-15 NB near MM 254 Drive with caution.
2,2020-11-09 01:52:27,48.0593,-114.2426,Somers,MT,175, Spring Creek Rd,Incident on SPRING CREEK RD near US-93 Drive with caution.
2,2020-12-11 22:53:02,45.8177,-108.41,Billings,MT,,I-90 W,Incident on I-90 WB near MM 455 Drive with caution.
3,2016-12-14 14:54:55,45.1352,-107.3691,Lodge Grass,MT,,I-90 E,Between MT-457/Exit 544 and CR-382/Exit 549 - Accident.
2,2020-09-26 14:04:05,48.321,-106.7928,Glasgow,MT,798, Riverside Dr,Incident on BORESON RD near RIVERSIDE DR Expect delays.
2,2019-03-07 10:19:49,47.1272,-114.7948,Superior,MT,,I-90 E,At Lozeau Rd/Exit 55 - Accident. Roadway reduced to 1 lane. Lane blocked.
2,2020-10-23 22:55:05,48.2393,-114.3305,Kalispell,MT,2466, US Highway 93 N,Incident on US-93 near RESERVE DR Drive with caution.
2,2020-12-31 04:19:46,48.5018,-115.9215,Troy,MT,1, Forest Dr,Incident on RIVER RD near US-2 Drive with caution.
2,2020-10-25 00:16:00,45.6306,-108.9303,Park City,MT,,I-90 W,Slow traffic on I-90 from US-10/Exit 426 (I-90) to MT-78/Exit 408 (I-90) due to accident.
2,2020-10-20 14:23:02,45.809,-111.2532,Belgrade,MT,934, Thorpe Rd,Incident on THORPE RD near ISAIAH TRL Drive with caution.
2,2020-11-11 16:07:08,46.2762,-114.0714,Corvallis,MT,548, Wilcox Ln,Incident on WILCOX LN near HAMILTON HEIGHTS RD Drive with caution.
2,2020-11-26 00:43:27,45.7342,-111.0987,Bozeman,MT,,I-90 W,Incident on I-90 WB near BOZEMAN Drive with caution.
2,2020-11-20 07:42:48,45.6793,-111.0462,Bozeman,MT,632, W Main St,Incident on I-90 WB near US-191 Expect delays.
2,2020-11-01 19:38:20,45.5659,-111.7539,Norris,MT,1, Swayback Rd,Incident on STERLING RD near SWAYBACK RD Expect delays.
2,2020-10-17 04:46:50,48.3202,-114.3322,Whitefish,MT,837, Bowdish Rd,Incident on BOWDISH RD near BEAR TRL Drive with caution.
2,2020-12-08 16:58:30,46.6367,-114.5817,Lolo,MT,44847, Lolo Creek Rd,Incident on US-12 near LOLO CREEK RD Drive with caution.
2,2020-12-07 16:37:59,46.9212,-114.0641,Missoula,MT,,I-90 E,Incident on US-93 near MM 101 Drive with caution.
3,2016-10-26 10:49:46,48.1254,-104.4744,Culbertson,MT,,MT-16,At Culbertson Brg - Accident.
2,2020-12-29 02:25:44,45.0303,-109.0568,Belfry,MT,223, Highway 72,Incident on MT-72 near HIGHWAY 72 Drive with caution.
2,2020-09-17 17:23:32,45.7657,-111.1458,Belgrade,MT,1, Aviation Ln,Incident on AVIATION LN near AIRPORT RD Expect delays.
2,2020-12-14 22:19:36,46.882,-113.8867,Missoula,MT,8000, Flagler Rd,Incident on SUNSET PINES CT near FLAGLER RD Drive with caution.
4,2020-10-22 11:20:00,46.6089,-113.0246,Gold Creek,MT,,I-90 W,Incident on I-90 WB near MM 160 Road closed. Take alternate route.
2,2020-10-13 02:00:56,45.6478,-108.7566,Laurel,MT,1661, US Highway 212 S,Incident on US-310 near THIEL RD Drive with caution.
2,2020-10-25 03:58:07,46.8328,-113.8239,Missoula,MT,,I-90 E,Incident on I-90 EB near MULLAN RD Drive with caution.
2,2020-12-14 17:35:03,48.3634,-114.2192,Columbia Falls,MT,2598, Talbot Rd,Incident on HILLTOP RD near TALBOT RD Drive with caution.
2,2016-10-23 02:42:20,45.6465,-110.8817,Bozeman,MT,,US-191 S,At Trail Crk Road/Exit 316 - Accident.
2,2020-10-25 17:49:07,46.4981,-113.9983,Stevensville,MT,1054, Middle Burnt Fork Rd,Incident on IRON CAP DR near MIDDLE BURNT FORK RD Expect delays.
2,2020-11-10 15:34:32,48.1969,-114.1157,Kalispell,MT,298, Kauffman Ln,Incident on CRESTON HATCHERY RD near KAUFFMAN LN Drive with caution.
2,2020-12-24 03:46:17.000000000,45.5591,-108.8582,Joliet,MT,,Farewell Rd,Incident on US-310 near US-212 Drive with caution.
2,2020-11-06 12:02:23,47.5695,-114.8717,Plains,MT,,Upper Lynch Creek Rd,Incident on UPPER LYNCH CREEK RD near CEDAR CREEK RD Expect delays.
2,2020-10-18 18:18:25,47.1599,-114.0826,Arlee,MT,92663, US Highway 93,Incident on POW WOW RD near US-93 Drive with caution.
2,2020-10-25 05:34:07,46.0482,-112.7477,Butte,MT,,I-90 W,Incident on I-90 WB near MM 211 Drive with caution.
2,2020-11-10 18:33:58,46.5048,-111.9019,Clancy,MT,377, McClellan Creek Rd,Incident on MCCLELLAN CREEK RD near STRAWBERRY LOOKOUT RD Drive with caution.
2,2020-12-25 07:13:40,45.7942,-108.4816,Billings,MT,,US Highway 87 E,Incident on I-90 WB near US-87 Expect delays.
2,2020-09-30 13:12:28,47.5443,-114.0703,Ronan,MT,45998, N Foothills Dr,Incident on FOOTHILLS DR near SPRING CREEK RD Expect delays.
2,2020-10-20 22:54:33,45.7407,-108.5792,Billings,MT,6420, Elysian Rd,Incident on ELYSIAN RD near FRONTAGE RD Drive with caution.
2,2020-11-25 14:31:06,46.3,-112.7471,Deer Lodge,MT,122, S Frontage Rd,Incident on FRONTAGE RD near DEMPSEY RD Drive with caution.
2,2020-11-17 08:58:13.000000000,48.3563,-114.1582,Columbia Falls,MT,3699, Highway 206,Incident on HIGHWAY 206 near MT-206 Expect delays.
2,2020-10-26 13:57:51,46.5369,-111.9431,Clancy,MT,,I-15 N,Incident on I-15 NB near MM 187 Drive with caution.
2,2020-10-24 19:55:08,47.1238,-114.0465,Arlee,MT,,US Highway 93 N,Incident on MOUNTAIN HOME LN near US-93 Expect delays.
2,2020-12-08 15:46:00,47.4932,-111.2156,Great Falls,MT,8998, US Highway 89,Incident on US-89 SB near 57TH ST Right lane blocked. Expect delays.
2,2019-06-26 12:58:08,45.5365,-112.6994,Twin Bridges,MT,,I-15 N,At Frontage Rd/Exit 93 - Accident. Roadway reduced to 1 lane. Lane blocked. emergency vehicles at scene.
2,2020-10-18 15:14:45,45.9319,-108.1676,Huntley,MT,,I-94 E,Incident on I-94 EB near MM 14 Expect delays.
2,2020-11-02 02:56:20,45.8459,-108.4662,Billings,MT,2580, US Highway 87 N,Incident on US-87 near PINE RIDGE LN Drive with caution.
2,2020-10-25 16:46:07,47.0995,-104.7086,Glendive,MT,,E Power St,Incident on TAYLOR AVE near VALENTINE ST Drive with caution.
2,2020-12-16 15:27:01.000000000,46.0087,-108.2934,Shepherd,MT,11619, C A Rd,Incident on C A RD near PEACEFUL PLATEAU TRL Drive with caution.
2,2020-10-09 03:09:11.000000000,45.6576,-109.3058,Columbus,MT,,I-90 E,Incident on I-90 EB near MT-306 Drive with caution.
2,2020-12-14 01:01:08,46.5227,-114.1123,Stevensville,MT,,Houk Way,Incident on STEVENSVILLE CUTOFF near HOUK WAY Drive with caution.
2,2020-11-25 06:52:06,46.8749,-113.8908,Missoula,MT,,I-90 W,Incident on I-90 WB near MM 109 Drive with caution.
2,2020-10-28 18:05:52,47.5298,-114.0528,Ronan,MT,33083, Terrace Lake Rd,Incident on TERRACE LAKE RD near TIMBER MEADOW RD Expect delays.
2,2020-12-28 18:27:55,45.6376,-110.9244,Bozeman,MT,5800, Bearclaw Ln,Incident on BEARCLAW LN near MOOSE HOLLOW RD Drive with caution.
2,2020-10-21 08:42:23,48.3217,-114.3347,Whitefish,MT,471, Antelope Trl,Incident on ANTELOPE TRL near MEADOW LN Expect delays.
2,2020-11-24 13:10:06,46.6323,-114.0417,Florence,MT,6012, Eastside Hwy,Incident on MT-203 near EIGHT MILE CREEK RD Drive with caution.
2,2020-09-14 04:22:16,46.157,-112.8915,Anaconda,MT,,Galen Rd,Incident on LOST CREEK RD near GALEN RD Expect delays.
4,2019-01-29 17:25:12,45.679,-111.0121,Bozeman,MT,,I-90 E,At I-90-BL/US-191/Main St/Exit 309 - Overturned heavy truck.
2,2020-11-16 04:28:12,45.3853,-109.1694,Roberts,MT,,Cooney Rd,Incident on COONEY RD near COTTONWOOD RD Expect delays.
2,2020-12-26 03:47:37,45.6129,-111.1963,Bozeman,MT,2, Zachariah Ln,Incident on GALLATIN RD near ZACHARIAH LN Drive with caution.
2,2020-11-02 02:20:20,48.3621,-115.5488,Libby,MT,99, Snowshoe Rd,Incident on SNOWSHOE RD near SHAUGNESSY RD Expect delays.
2,2020-11-11 23:57:23,45.7521,-108.5192,Billings,MT,,I-90 E,Incident on I-90 EB near US-212 Drive with caution.
2,2020-12-12 07:49:12,48.1503,-114.0082,Kalispell,MT,4299, Foothill Rd,Incident on FOOTHILL RD near NOISY CREEK RD Expect delays.
2,2018-01-14 18:22:25,45.9308,-114.1182,Conner,MT,4966,US Highway 93 S,Accident on US-93 Southbound at Conner Cutoff Rd.
2,2020-12-30 00:39:19,46.9811,-114.124,Missoula,MT,11468, US Highway 93 N,Incident on US-93 near INDRELAND RD Expect delays.
2,2020-10-23 02:22:05,46.849,-108.876,Grass Range,MT,201, Tyler Cutoff,Incident on TYLER CUTOFF near UPPER FLATWILLOW RD Drive with caution.
2,2020-09-25 00:27:47,48.2549,-114.2931,Kalispell,MT,100, Rose Bud Ln,Incident on ROSE BUD LN near ROSE CROSSING RD Expect delays.
2,2020-11-13 00:33:00,48.5394,-108.8085,Harlem,MT,,US Highway 2,Slow traffic on US-2 W - US-2 E from Old Savoy Rd/Watkins Ln (US-2) to 14th Ave (US-2) due to accident.
2,2020-10-10 00:50:49,45.6578,-110.7671,Livingston,MT,,I-90 W,Incident on I-90 WB near QUINN CREEK RD Expect delays.
3,2019-02-03 22:04:04,47.3024,-112.1238,Wolf Creek,MT,9428, MT Highway 200,At MT-21 - Accident.
2,2020-12-03 01:38:15.000000000,45.7294,-111.1239,Bozeman,MT,1198, Harper Puckett Rd,Incident on VALLEY CENTER RD near HARPER PUCKET RD Expect delays.
2,2020-11-19 06:28:04,46.2627,-112.3314,Clancy,MT,,I-15 S,Incident on I-15 SB near MM 151 Drive with caution.
2,2020-11-05 01:46:10,46.3475,-108.6791,Roundup,MT,15967, US Highway 12 W,Incident on US-12 near HOUGARDY LN Drive with caution.
2,2020-12-14 15:58:03,45.7521,-108.5307,Billings,MT,,I-90 E,Incident on I-90 EB near US-212 Drive with caution.
2,2020-12-26 12:40:41,46.2571,-108.4315,Roundup,MT,9, PM Coal Rd,Incident on PM COAL RD near OLD DIVIDE RD Expect delays.
2,2020-12-18 02:44:38,47.3557,-114.0967,Saint Ignatius,MT,75099, US Highway 93,Incident on LEMERY LN near US-93 Drive with caution.
2,2020-12-22 23:40:40,47.421,-115.6119,Saint Regis,MT,,I-90 E,Incident on I-90 EB near MM 5 Expect delays.
2,2020-10-25 00:32:23,48.8052,-115.1347,Rexford,MT,,Pinkham Creek Rd,Incident on PINKHAM RD near STACY HOLLOW DR Drive with caution.
2,2020-11-20 07:42:48,45.6798,-111.0462,Bozeman,MT,21, N 7th Ave,Incident on I-90 EB near US-191 Expect delays.
2,2017-01-31 08:29:05,46.6029,-112.0056,Helena,MT,,I-15 N,Between I-15-BL/Cedar St/Exit 193 and MT-279/MT-453/Lincoln Rd/Exit 200 - Accident.
2,2020-10-19 22:34:03,46.9495,-104.9066,Glendive,MT,,I-94 W,Incident on I-94 WB near MM 198 Drive with caution.
2,2020-12-17 19:56:38,46.962,-112.6123,Lincoln,MT,2200, Smiley Rd,Incident on MT-200 near SMILEY RD Drive with caution.
2,2020-12-23 00:37:40,46.9241,-112.1237,Wolf Creek,MT,,I-15 N,Incident on I-15 NB near MM 209 Drive with caution.
2,2020-10-25 00:31:07,46.6401,-111.7241,Helena,MT,6999, Sail View Rd,Incident on CANYON FERRY RD near SAIL VIEW RD Drive with caution.
2,2020-12-17 05:08:04,45.2141,-109.2425,Red Lodge,MT,2, Two Mile Bridge Rd,Incident on US-212 near TWO MILE BRIDGE RD Drive with caution.
2,2020-10-26 01:31:36,47.8678,-104.3091,Fairview,MT,34309, Highway 201,Incident on HIGHWAY 201 near MT-16 Drive with caution.
2,2020-11-11 15:52:08,45.9926,-112.5447,Butte,MT,,I-15 S,Incident on I-15 NB near MM 124 Drive with caution.
2,2020-10-20 13:16:04,46.3598,-112.741,Deer Lodge,MT,,I-90 W,Incident on I-90 WB near MM 187 Drive with caution.
2,2020-11-06 04:59:23.000000000,48.3003,-113.38,Essex,MT,,US Highway 2 E,Incident on US-2 near SKYLAND RD Expect delays.
2,2020-12-12 11:14:02,48.1067,-114.4417,Kila,MT,2698, Smith Lake Rd,Incident on SMITH LAKE RD near SPRING HILL RD Drive with caution.
2,2020-10-20 06:31:58,48.3656,-109.6758,Havre,MT,,Beaver Creek Rd,Incident on BEAVER CREEK RD near MOUNTAIN VIEW RD Drive with caution.
2,2020-10-29 02:02:52,48.3127,-114.1593,Columbia Falls,MT,100, Trap Rd,Incident on HIGHWAY 206 near TRAP LN Drive with caution.
2,2020-11-09 03:07:27,45.6628,-108.7691,Laurel,MT,,I-90 W,Incident on I-90 WB near US-212 Drive with caution.
2,2020-10-17 14:25:41,48.3071,-111.9376,Conrad,MT,1469, Valier Hwy,Incident on MT-44 near MT-91 Drive with caution.
2,2020-12-19 03:17:38,47.9512,-110.5052,Loma,MT,53090, US Highway 87,Incident on US-87 near LEWIS AND CLARK TRL Drive with caution.
2,2020-12-23 19:46:40,48.4361,-114.3412,Whitefish,MT,1799, Wisconsin Ave,Incident on LAKESHORE DR near WISCONSIN AVE Drive with caution.
2,2020-12-31 15:54:14,48.327,-114.2407,Columbia Falls,MT,4895, US Highway 2 E,Incident on US-2 near JELLISON LN Drive with caution.
2,2020-10-28 16:12:20,48.079,-114.2294,Somers,MT,5368, Highway 93 S,Incident on US-93 near SOMERS RD Drive with caution.
2,2020-11-20 07:42:48,45.6793,-111.0462,Bozeman,MT,632, W Main St,Incident on I-90 WB near US-191 Expect delays.
2,2020-11-09 19:19:08,47.3257,-115.2501,Saint Regis,MT,,I-90 E,Incident on I-90 EB near MM 25 Expect delays.
2,2020-11-02 00:05:20,45.8746,-110.6447,Livingston,MT,,Canyon Creek Rd,Incident on BRACKETT CREEK RD near CANYON CREEK RD Drive with caution.
2,2020-12-24 23:37:40,45.2039,-110.8974,Emigrant,MT,87, Tom Miner Creek Rd,Incident on TOM MINER CREEK RD near US-89 Drive with caution.
2,2020-11-19 01:49:04,45.6443,-110.5725,Livingston,MT,,I-90 E,Incident on I-90 EB near MM 333 Drive with caution.
2,2019-02-12 08:50:31,46.8218,-114.0796,Missoula,MT,5158, US Highway 93 S,At US-93/Lewis and Clark Hwy - Accident. Lane blocked.
2,2020-11-27 19:19:33,46.9297,-114.2144,Missoula,MT,,Deep Creek Rd,Incident on BIG FLAT RD near DEEP CREEK RD Drive with caution.
2,2020-10-29 12:39:54,47.5178,-114.9818,Plains,MT,2, Buffalo Bill Rd,Incident on BUFFALO BILL RD near DRAGONFLY LN Drive with caution.
2,2017-07-12 11:16:01,48.495,-113.9811,Kalispell,MT,,Going To the Sun Rd,At Glacier RT One/Going to the Sun Hwy - Accident.
2,2020-09-21 18:27:34,46.5886,-114.0497,Stevensville,MT,5401, Eastside Hwy,Incident on EASTSIDE HWY near DRY GULCH RD Drive with caution.
2,2020-09-15 03:43:23,46.2294,-114.1902,Hamilton,MT,401, Westside Rd,Incident on WESTSIDE RD near OWINGS CREEK RD Expect delays.
2,2020-12-13 02:14:02,47.6311,-114.0938,Polson,MT,35201, Mud Lake Trl,Incident on MUD LAKE TRL near FARM RD Drive with caution.
2,2020-10-25 00:38:22,45.8274,-110.8837,Bozeman,MT,11995, Bridger Canyon Rd,Incident on BRIDGER CANYON RD near HENRYS DR Drive with caution.
2,2020-11-02 23:41:21,46.6539,-111.7009,Helena,MT,8028, Canyon Ferry Rd,Incident on CANYON FERRY RD near CAVE GULCH RD Drive with caution.
2,2020-12-12 22:59:02,47.6024,-111.2284,Floweree,MT,100, Black Horse Lake Rd,Incident on US-87 near BLACK HORSE LAKE RD Drive with caution.
2,2020-11-01 00:18:21,45.9812,-112.4887,Butte,MT,,I-15 N,Incident on I-15 NB near MM 129 Expect delays.
2,2020-12-14 18:18:55.000000000,47.7173,-114.1992,Polson,MT,47077, US Highway 93,Incident on FOX RD near US-93 Drive with caution.
2,2020-12-30 03:23:01,47.6311,-114.1136,Polson,MT,55798, US Highway 93,Incident on MUD LAKE TRL near US-93 Expect delays.
2,2020-11-30 18:18:32,48.021,-115.8255,Noxon,MT,98, Hereford Ln,Incident on MT-200 near HEREFORD LN Drive with caution.
2,2019-02-17 18:44:00,47.0783,-112.3703,Wolf Creek,MT,124, MT Highway 200,At MT-434/Stearns-Augusta Rd - Accident. Lane blocked.
2,2020-12-03 04:04:28.000000000,47.7852,-110.5299,Fort Benton,MT,2, Clear Lake Rd,Incident on CLEAR LAKE RD near MT-80 Expect delays.
3,2018-12-12 06:56:20,46.8646,-113.9567,Missoula,MT,,I-90 E,At MT-200/Exit 107 - Accident. Two lanes blocked.
2,2020-09-14 11:18:41,44.8203,-111.2611,West Yellowstone,MT,14227, Hebgen Lake Rd,Incident on US-287 near LOOP LN Expect delays.
2,2020-10-09 03:38:00,45.7515,-108.5515,Billings,MT,,I-90 W,Slow traffic on I-90 from Billings Blvd/Exit 447 (I-90) to Mullowney Ln/King Ave/Exit 446 (I-90) due to accident.
2,2020-10-22 02:09:09,45.6628,-108.7691,Laurel,MT,,I-90 W,Incident on I-90 WB near US-212 Expect delays.
2,2020-10-19 00:34:41,45.6628,-108.7691,Laurel,MT,,I-90 W,Incident on I-90 WB near US-212 Drive with caution.
2,2020-10-24 07:57:23.000000000,45.6856,-111.1246,Bozeman,MT,3000, Durston Rd,Incident on DURSTON RD near GOOCH HILL RD Expect delays.
2,2020-11-23 23:43:57,47.5145,-114.049,Ronan,MT,2199, Timberlane Rd,Incident on TIMBERLANE RD near GRIZZLY DR Drive with caution.
2,2020-12-11 22:30:00,46.3351,-111.5317,Townsend,MT,,US Highway 287,Incident on US-12 EB near TOWNSEND Expect long delays.
2,2020-12-29 14:55:45,46.4796,-114.1272,Stevensville,MT,3287, US Highway 93 N,Incident on US-93 near PASO DR Drive with caution.
2,2020-10-22 15:26:00,47.4374,-115.681,Saint Regis,MT,,I-90 W,Slow traffic on I-90 from Exit 5 (I-90) to Lookout Pass/Exit 0 (Saint Regis) (I-90) due to accident.
2,2020-10-30 02:23:52.000000000,46.8394,-113.8357,Missoula,MT,,I-90 E,Incident on I-90 EB near MM 113 Drive with caution.
2,2020-12-22 18:37:40,45.6614,-110.7348,Livingston,MT,,I-90 W,Incident on I-90 WB near MM 324 Drive with caution.
2,2020-12-24 19:01:04,45.1154,-111.2254,Gallatin Gateway,MT,,Cinnamon Creek Rd,Incident on US-191 near WALTON MINE RD Drive with caution.
2,2020-12-07 14:04:30.000000000,46.9538,-114.1356,Missoula,MT,,I-90 E,Incident on I-90 EB near MT-200 Drive with caution.
2,2020-11-21 06:10:05.000000000,45.8019,-111.253,Belgrade,MT,1474, Thorpe Rd,Incident on THORPE RD near DEAD END RD Expect delays.
2,2020-11-07 20:18:09,48.3515,-114.1811,Columbia Falls,MT,3961, Columbia Falls Stage,Incident on COLUMBIA FALLS STAGE near HILLSIDE VIEWS RD Drive with caution.
2,2020-10-22 19:44:50,45.6364,-108.9048,Park City,MT,,I-90 W,Incident on I-90 WB near MM 426 Drive with caution.
4,2019-04-28 19:46:44,47.1983,-110.3793,Geyser,MT,,US Highway 87,Closed at Neihart - Road closed due to accident. Accident. Snowfall. Gusty winds.
2,2020-12-31 13:52:46,46.9498,-114.1282,Missoula,MT,,US-93 N,Incident on I-90 WB near MT-200 Expect delays.
4,2019-05-01 20:16:44,45.7122,-111.062,Bozeman,MT,,I-90 W,Closed between MT-412/19th Ave/Exit 305 and MT-85/MT-291/Exit 298 - Road closed due to accident.
2,2020-12-06 22:04:30,46.6457,-112.0469,Helena,MT,2, Mill Rd,Incident on GREEN MEADOW DR near MILL RD Drive with caution.
2,2020-10-19 11:06:57,45.6641,-108.7641,Laurel,MT,,I-90 W,Incident on I-90 WB near MM 434 Drive with caution.
2,2020-12-16 22:27:49,45.7729,-108.6514,Billings,MT,5310, Evening Shadow Ln,Incident on EVENING SHADOW LN near MOONSTONE LN Drive with caution.
2,2020-12-11 23:32:02,45.7885,-111.2011,Belgrade,MT,18734, Frontage Rd,Incident on FRONTAGE RD near ASTOR AVE Expect delays.
2,2019-02-27 12:44:18,47.1202,-114.7909,Superior,MT,,I-90 W,At River St/Exit 47 - Accident. Roadway reduced to 1 lane. Lane blocked.
2,2017-12-19 22:45:40,47.8452,-111.7025,Dutton,MT,,I-15 N,At MT-221/MT-379/Exit 313 - Accident.
2,2020-11-13 23:44:34,46.7439,-114.0899,Lolo,MT,13252, Sapphire Dr,Incident on SAPPHIRE DR near FAITHFUL WAY Drive with caution.
2,2020-12-19 18:31:39,46.5285,-108.0931,Roundup,MT,19225, US Highway 12 E,Incident on US-12 near MUSSELSHELL RD Drive with caution.
2,2020-12-31 11:43:46,47.106,-114.7883,Superior,MT,,Quartz Rd,Incident on QUARTZ RD near DIAMOND RD Drive with caution.
2,2020-11-29 03:19:40.000000000,46.7173,-114.5352,Lolo,MT,,Fish Creek Rd,Incident on FISH CREEK RD near US-12 Drive with caution.
2,2020-12-13 19:05:44,47.6545,-114.6473,Hot Springs,MT,267, West Rd,Incident on WEST RD near GARDEN CREEK RD Drive with caution.
2,2020-10-22 15:26:00.000000000,47.4374,-115.681,Saint Regis,MT,,I-90 W,Slow traffic on I-90 from Exit 5 (I-90) to Lookout Pass/Exit 0 (Saint Regis) (I-90) due to accident.
2,2020-10-28 14:42:51,46.6561,-112.1268,Helena,MT,4698, Birdseye Rd,Incident on BIRDSEYE RD near ECHO DR Expect delays.
2,2020-12-30 04:44:52,46.9557,-114.1314,Missoula,MT,8798, US Highway 93 N,Incident on US-93 near CARTAGE RD Drive with caution.
2,2020-11-25 03:31:06.000000000,47.0025,-113.3715,Bonner,MT,43894, MT Highway 200 E,Incident on MT-83 near MT-200 Drive with caution.
2,2020-11-11 23:48:16,45.6628,-108.7691,Laurel,MT,,I-90 W,Incident on I-90 WB near US-212 Drive with caution.
2,2020-12-11 00:11:02,47.0305,-114.3323,Huson,MT,23799, Mullan Rd,Incident on MULLAN RD near LEIF LN Drive with caution.
2,2020-11-22 20:52:06,48.2259,-114.2794,Kalispell,MT,30, W Evergreen Dr,Incident on EVERGREEN DR near US-2 Drive with caution.
3,2019-02-24 00:00:02,45.709,-112.7019,Divide,MT,,I-15 N,Between Moose CR Rd/Exit 99 and MT-43/Exit 102 - Accident.
2,2020-12-25 02:07:40,47.4987,-112.2217,Augusta,MT,14291, Dry Creek Rd,Incident on MT-21 near FREEMAN RD Drive with caution.
2,2020-06-17 15:00:00,45.5968,-106.8325,Busby,MT,,US Highway 212,Incident on US-212 WB near LAME DEER Road closed. Take alternate route.
2,2020-11-15 00:19:34,46.9629,-114.0119,Missoula,MT,9601, Keegan Gulch,Incident on KEEGAN GULCH near SNOW BOWL RD Drive with caution.
2,2020-12-11 22:11:02,46.9101,-114.0302,Missoula,MT,,I-90 E,Incident on I-90 EB near MT-200 Drive with caution.
2,2020-10-24 17:40:07.000000000,46.2633,-107.1326,Forsyth,MT,,I-94 E,Incident on I-94 EB near MM 82 Drive with caution.
2,2020-12-22 20:13:40,46.9176,-112.12,Wolf Creek,MT,,I-15 N,Incident on I-15 NB near US-287 Drive with caution.
4,2017-07-18 09:11:57,45.8866,-108.3045,Huntley,MT,,I-94 W,At MT-522/Exit 6 - Overturned heavy truck.
2,2020-10-25 16:48:00,45.8128,-109.8648,Big Timber,MT,,I-90 W,Slow traffic on I-90 from Frontage Rd/Exit 377 (I-90) to US-191/Exit 367 (I-90) due to accident.
2,2020-12-23 20:51:49,48.2837,-114.4064,Kalispell,MT,1650, Church Dr,Incident on CHURCH DR near LONE COYOTE TRL Drive with caution.
2,2020-11-01 10:00:17,45.5114,-110.6098,Livingston,MT,99, Pine Meadow Rd,Incident on PINE CREEK RD near US-89 Drive with caution.
2,2020-12-31 01:43:46,47.5768,-114.0748,Ronan,MT,33297, N Crow Rd,Incident on CROW RD near FOOTHILLS DR Drive with caution.
2,2020-11-08 17:44:27,47.7101,-111.6581,Power,MT,,I-15 S,Incident on I-15 SB near MM 302 Drive with caution.
2,2020-10-24 22:53:00,45.6954,-108.6785,Billings,MT,,I-90 E,Slow traffic on I-90 from I-90/Exit 437 (I-90) to Zoo Dr/Exit 443 (I-90) due to accident.
2,2020-10-24 18:01:07,45.6628,-108.7691,Laurel,MT,,I-90 W,Incident on I-90 WB near MM 452 Drive with caution.
2,2020-11-29 16:07:28.000000000,45.5948,-109.054,Columbus,MT,2038, Highway 10,Incident on HIGHWAY 10 near RONAN RANCH RD Drive with caution.
2,2020-12-06 06:22:30,46.0095,-112.6792,Butte,MT,,I-90 W,Incident on I-90 WB near MM 216 Drive with caution.
2,2020-12-12 15:05:02,45.7406,-108.6158,Billings,MT,3901, Hesper Rd,Incident on HESPER RD near SHILOH RD Drive with caution.
2,2020-12-07 15:19:30,45.7001,-111.1828,Bozeman,MT,88, Baxter Ln E,Incident on BAXTER LN near JACKRABBIT LN Drive with caution.
2,2019-01-23 15:24:09,46.5655,-112.6735,Garrison,MT,,US Highway 12 E,At MT-141 - Multi-vehicle accident involving vehicle. Lane blocked.
2,2020-10-22 08:07:04,47.1894,-111.8077,Cascade,MT,,Old US Highway 91,Incident on I-15 SB near MM 250 Drive with caution.
2,2020-11-24 17:28:06,46.8851,-114.0392,Missoula,MT,,N Reserve St,Incident on MULLAN RD near RESERVE ST Drive with caution.
2,2020-10-24 23:23:39,45.6846,-108.7011,Laurel,MT,,I-90 E,Incident on I-90 EB near US-212 Drive with caution.
2,2016-12-29 10:12:04,48.5557,-112.0979,Shelby,MT,27071, US Highway 2,At I-15 - Accident.
3,2019-04-09 18:17:38,46.7289,-114.0792,Florence,MT,17345, US Highway 93 N,At Stevensville - Accident. Passing lane blocked.
2,2020-10-18 00:27:57,46.8991,-114.1318,Missoula,MT,9516, Mullan Rd,Incident on MULLAN RD near KONA RANCH RD Drive with caution.
2,2020-12-11 19:22:11,47.5646,-111.5376,Vaughn,MT,,I-15 S,Incident on I-15 SB near MT-200 Expect delays.
2,2020-12-12 15:44:02,45.5764,-111.1969,Gallatin Gateway,MT,,Gallatin Rd,Incident on US-191 near COTTONWOOD RD Drive with caution.
2,2020-12-25 13:54:25,46.8679,-113.9461,Missoula,MT,,I-90 W,Incident on I-90 WB near MM 107 Expect delays.
2,2020-10-22 16:57:49,45.7191,-111.07,Bozeman,MT,,I-90 E,Incident on I-90 EB near MM 305 Drive with caution.
2,2020-12-22 19:37:40,48.2319,-114.2762,Kalispell,MT,2400, US Highway 2 E,Incident on US-2 near SUNSET DR Drive with caution.
2,2019-11-04 15:15:04,47.8075,-108.6086,Zortman,MT,54165, US Highway 191 S,At Beaver Creek Hwy - Accident. Roadway reduced to 1 lane. emergency vehicles at scene.
2,2020-12-28 00:38:03,45.624,-109.2789,Columbus,MT,4468, Highway 78,Incident on COUNTRYMAN CREEK RD near MT-78 Drive with caution.
2,2020-10-29 08:47:52,45.9586,-108.1157,Ballantine,MT,2014, Lower Canal Rd,Incident on LOWER CANAL RD near 20TH RD Drive with caution.
2,2020-12-23 20:42:11,45.6502,-110.6085,Livingston,MT,,I-90 W,Incident on I-90 WB near MM 330 Expect delays.
2,2020-12-19 01:47:44,45.6713,-111.2114,Bozeman,MT,9299, River Rd,Incident on RIVER RD near NORRIS RD Drive with caution.
2,2020-11-10 20:32:33,45.7492,-111.2062,Belgrade,MT,7198, Thorpe Rd,Incident on THORPE RD near PARKER DR Drive with caution.
2,2020-11-19 00:28:04,48.2112,-114.3949,Kalispell,MT,1205, Three Mile Dr,Incident on THREE MILE DR near VALLEY DR Drive with caution.
2,2020-11-27 02:47:34,46.8018,-114.0622,Missoula,MT,7298, Uncle Robert Ln,Incident on ALEX LN near UNCLE ROBERT LN Drive with caution.
2,2020-10-30 02:08:52,48.4768,-111.7529,Shelby,MT,28522, US Highway 2,Incident on US-2 near F BRIDGE RD Drive with caution.
2,2020-12-18 03:04:35.000000000,45.772,-111.1849,Belgrade,MT,396, W Jefferson Ave,Incident on JACKRABBIT LN near JEFFERSON AVE Drive with caution.
2,2020-12-24 23:04:02,46.9332,-112.1266,Wolf Creek,MT,,I-15 N,Incident on I-15 NB near US-287 Expect delays.
3,2017-03-01 14:01:15,47.295,-115.1452,Saint Regis,MT,,I-90 W,Between MT-135/Exit 33 and Ward CR Rd/Exit 26 - Accident.
2,2020-11-25 00:30:28,45.7625,-111.1505,Belgrade,MT,2, Airport Rd,Incident on FRONTAGE RD near AIRPORT RD Drive with caution.
2,2020-11-25 23:37:27,46.7164,-113.6682,Clinton,MT,1, Bucking Horse Ln,Incident on ROCK CREEK RD near STAGE STATION RD Expect delays.
2,2020-12-12 07:23:46,48.5354,-111.8598,Shelby,MT,,I-15 S,Incident on I-15 SB near MM 364 Drive with caution.
4,2019-05-29 20:00:38,47.5048,-112.3519,Augusta,MT,2620, MT Highway 21,Closed at Bob Thomas Rd - Road closed due to accident. Flooding.
2,2020-09-12 21:47:30,47.457,-111.41,Great Falls,MT,,I-15 S,Incident on I-15 SB near UNDERPASS 2FRS Drive with caution.
2,2020-11-18 01:58:13,46.3528,-114.2007,Victor,MT,661, Fred Burr Rd,Incident on FRED BURR RD near RED CROW RD Drive with caution.
2,2020-10-24 01:16:05,48.1952,-114.3395,Kalispell,MT,,US-93 Alt S,Incident on US-93 near MM 4 Drive with caution.
2,2020-12-13 11:34:34,48.0736,-110.5695,Loma,MT,10786, Colony Bay Rd,Incident on COLONY BAY RD near THANE RD Drive with caution.
2,2020-10-24 20:44:36,45.8601,-108.4456,Billings,MT,3349, Bitterroot Dr,Incident on BITTERROOT DR near OXBOW CIR Drive with caution.
2,2020-09-25 15:22:04,48.1887,-114.1211,Kalispell,MT,4750, MT Highway 35,Incident on HIGHWAY 35 near CRESTON HATCHERY RD Drive with caution.
2,2020-11-26 04:16:27,45.6605,-110.9522,Bozeman,MT,,I-90 E,Incident on I-90 EB near MM 313 Drive with caution.
2,2020-12-11 17:14:02,47.5142,-110.8958,Great Falls,MT,1465, Highwood Rd,Incident on HIGHWOOD RD near WALTHAM RD Drive with caution.
2,2020-12-13 01:11:03,45.7163,-109.2908,Columbus,MT,647, Rapelje Rd,Incident on RAPELJE RD near MT-306 Drive with caution.
4,2019-05-10 09:57:43,46.4084,-105.8407,Miles City,MT,1599, Main St,Closed at Valley Dr E - Road closed due to accident. Gas leak.
2,2020-12-23 19:52:40,45.6395,-111.1042,Bozeman,MT,6890, Cottonwood Rd,Incident on COTTONWOOD RD near BLACKWOOD RD Drive with caution.
2,2020-11-26 00:43:27,45.679,-111.0119,Bozeman,MT,,I-90 W,Incident on I-90 WB near MM 319 Drive with caution.
2,2020-11-04 15:38:23.000000000,46.8803,-113.9926,Missoula,MT,,N Orange St,Incident on US-93 near MM 104 Drive with caution.
2,2016-07-12 08:31:25,47.4355,-111.5014,Great Falls,MT,,I-15 S,At Center St/Exit 270 - Accident.
2,2016-06-27 09:46:20,45.8675,-112.673,Divide,MT,,I-15 N,At Divide Creek Rd/Exit 111 - Accident.
2,2020-12-12 22:59:02,47.6024,-111.2284,Floweree,MT,100, Black Horse Lake Rd,Incident on US-87 near BLACK HORSE LAKE RD Drive with caution.
2,2020-12-19 03:38:38,46.7475,-114.1399,Lolo,MT,10250, Highway 12 W,Incident on US-12 near LEWIS AND CLARK HWY Drive with caution.
2,2020-11-04 00:35:21,45.7981,-108.453,Billings,MT,,I-90 W,Incident on I-90 WB near MM 452 Drive with caution.
2,2020-10-24 18:55:00,45.6075,-109.1649,Columbus,MT,,I-90 W,Slow traffic on I-90 from US-10/Exit 426 (I-90) to MT-78/Exit 408 (I-90) due to accident.
2,2020-12-23 03:58:40,46.9166,-113.4294,Bonner,MT,40098, Paws Up Rd,Incident on SUNSET HILL RD near PAWS UP RD Drive with caution.
2,2020-12-22 19:21:00,45.6581,-110.764,Livingston,MT,,I-90 E,Incident on I-90 EB near LIVINGSTON Expect delays.
2,2020-12-11 22:16:43,46.4983,-105.71,Ismay,MT,,I-94 E,Incident on I-94 EB near MM 148 Drive with caution.
2,2020-12-27 23:20:47,47.0371,-108.5953,Winnett,MT,1, Blakeslee Rd,Incident on MT-200 near STATE HIGHWAY 200 Drive with caution.
2,2020-11-11 21:12:45.000000000,47.3295,-115.0492,Saint Regis,MT,300, Tamarack Creek Rd,Incident on TAMARACK CREEK RD near MT-135 Drive with caution.
2,2020-10-04 23:07:53,47.4792,-114.4573,Hot Springs,MT,2354, Little Bitterroot Rd,Incident on LITTLE BITTERROOT RD near ANDERSON RD Expect delays.
2,2020-09-26 01:28:05,48.0614,-105.5348,Wolf Point,MT,105, MT Highway 528,Incident on RIVER RD near MT-13 Expect delays.
2,2020-12-26 21:40:06,46.878,-113.9902,Missoula,MT,,I-90 W,Incident on I-90 WB near MM 104 Drive with caution.
2,2018-02-05 12:23:57,45.172,-107.3669,Lodge Grass,MT,,US-87 N,At MT-463/Exit 530 - Overturned heavy truck. Bus lane blocked.
2,2020-12-12 12:00:00,45.6446,-110.5552,Livingston,MT,,I-90 E,Slow traffic on I-90 E - US-191 N from US-89/Exit 333 (I-90) to I-90/Exit 337 (I-90) due to accident.
2,2020-12-08 23:30:48,45.8076,-108.4658,Billings,MT,499, Bench Blvd,Incident on BENCH BLVD near ORILLA ST Drive with caution.
2,2020-12-31 21:00:43,48.2498,-114.2763,Kalispell,MT,801, Trumble Creek Rd,Incident on TRUMBLE CREEK RD near ROSE CROSSING RD Drive with caution.
2,2020-12-27 17:39:36,47.2971,-115.1714,Saint Regis,MT,,I-90 W,Incident on I-90 WB near MM 30 Drive with caution.
2,2020-11-09 04:11:25,45.7793,-108.1524,Huntley,MT,,I-90 W,Incident on I-90 WB near MM 469 Drive with caution.
2,2020-10-23 04:13:05,48.1081,-105.043,Brockton,MT,,MT-480,Incident on MT-480 near BIA ROUTE 1 Expect delays.
2,2020-12-22 03:28:01,46.2983,-114.1143,Corvallis,MT,901, Eastside Hwy,Incident on HAWKER LN near CEMETERY RD Drive with caution.
2,2020-11-26 07:04:00,45.6445,-110.5682,Livingston,MT,,I-90 W,Slow traffic on I-90 W - US-191 S from I-90/Exit 337 (I-90) to US-10/Exit 330 (I-90) due to accident.
2,2020-11-21 01:40:05,46.1918,-114.1739,Hamilton,MT,961, US Highway 93 S,Incident on US-93 near ROARING LION RD Drive with caution.
2,2020-11-13 01:43:09,48.2258,-114.2542,Kalispell,MT,199, Helena Flats Rd,Incident on HELENA FLATS RD near EVERGREEN DR Drive with caution.
4,2018-12-31 16:18:03,45.7518,-108.5494,Billings,MT,,US-212 E,Closed between Mullowney Ln/King Ave/Exit 446 and MT-3/27th Street/Exit 450 - Road closed due to accident.
2,2020-12-01 02:27:50,45.7161,-108.5133,Billings,MT,3110, Blue Creek Rd,Incident on BLUE CREEK RD near BRIARWOOD BLVD Drive with caution.
2,2020-11-12 10:07:08,48.1861,-114.3089,Kalispell,MT,,13th St E,Incident on US-93 near AIRPORT RD Drive with caution.
2,2020-10-18 15:14:45,45.9319,-108.1676,Huntley,MT,,I-94 E,Incident on I-94 EB near MM 14 Expect delays.
2,2020-10-24 23:23:39,45.6905,-108.6886,Laurel,MT,,I-90 E,Incident on I-90 EB near US-212 Drive with caution.
2,2019-09-18 10:22:58,45.7164,-107.5386,Crow Agency,MT,,I-90 W,At I-90-BL/Exit 497 - Overturned vehicle. Roadway reduced to 1 lane. Lane blocked.
2,2020-12-31 05:32:38,48.2049,-114.2978,Kalispell,MT,,US Highway 2 E,Incident on FLATHEAD DR near US-2 Expect delays.
2,2020-12-02 21:25:28,46.3527,-114.2136,Victor,MT,782, Fred Burr Rd,Incident on FRED BURR RD near BURR RIDGE RD Drive with caution.
2,2020-11-12 23:07:09.000000000,45.2987,-111.4102,Big Sky,MT,,Lone Mountain Trl,Incident on LONE MOUNTAIN TRL near WASHAKI Drive with caution.
2,2020-11-17 16:27:17,48.0954,-114.2236,Kalispell,MT,400, Highway 82,Incident on MT-82 near US-93 Drive with caution.
2,2020-10-19 02:55:46,46.5915,-111.9418,Helena,MT,3634, E US Highway 12,Incident on US-12 near WINSLOW AVE Drive with caution.
2,2020-09-25 19:25:04,47.8468,-115.6192,Trout Creek,MT,104, Marten Creek Rd,Incident on MARTEN CREEK RD near TROUT CREEK RD Drive with caution.
4,2020-01-01 15:23:48,47.2071,-114.1179,Arlee,MT,88516, US Highway 93,Closed at White Coyote Rd - Road closed due to accident.
2,2020-10-27 20:11:33,46.5907,-112.9243,Gold Creek,MT,,I-90 W,Incident on I-90 WB near MM 166 Drive with caution.
2,2020-10-23 23:55:08,46.5118,-114.0667,Stevensville,MT,3794, Logan Ln,Incident on EASTSIDE HWY near LOGAN LN Expect delays.
2,2020-11-15 20:49:12,46.6165,-112.0207,Helena,MT,1203, E Custer Ave,Incident on CANYON FERRY RD near MT-430 Drive with caution.
2,2020-12-13 02:19:29,47.6744,-104.2013,Sidney,MT,34826, County 122,Incident on COUNTY ROAD 122 near MT-16 Expect delays.
2,2020-10-21 15:37:04,45.2492,-111.3689,Big Sky,MT,2, Settlement Trl,Incident on SETTLEMENT TRL near FORK RD Drive with caution.
2,2020-11-08 18:08:00,47.5516,-111.4867,Great Falls,MT,,I-15 N,Stationary traffic on I-15 from Manchester Rd/Exit 286 (I-15) to US-89/MT-200/Exit 290 (I-15) due to accident.
2,2020-10-24 23:19:00,46.5335,-111.9416,Clancy,MT,,I-15 N,Slow traffic on I-15 from Frontage Rd/Exit 182 (I-15) to Mount MT-518/Exit 187 (I-15) due to accident.
2,2020-10-06 04:58:01,45.3615,-110.7445,Livingston,MT,198, Sirius Dr,Incident on SIRIUS DR near STORY RD Expect delays.
2,2020-10-27 18:27:51,48.0952,-114.0889,Bigfork,MT,7501, MT Highway 35,Incident on MT-35 near MT-83 Expect delays.
2,2020-12-26 21:52:44,48.4152,-114.3329,Whitefish,MT,1, Texas Ave,Incident on TEXAS AVE near EDGEWOOD DR Drive with caution.
2,2020-10-24 16:58:07,45.7714,-108.4872,Billings,MT,,I-90 W,Incident on I-90 WB near US-212 Drive with caution.
2,2020-12-22 20:09:00,46.8987,-112.1216,Wolf Creek,MT,,I-15 N,Slow traffic on I-15 N - US-287 N from Sieben Canyon Rd/Exit 216 (I-15) to Exit 226 (I-15) due to accident.
2,2020-12-29 02:37:44,48.0442,-113.9741,Bigfork,MT,82201, MT Highway 83,Incident on MT-83 near MT-209 Drive with caution.
2,2020-12-28 15:46:43,46.7044,-112.0231,Helena,MT,1030, Lincoln Rd W,Incident on LINCOLN RD near MONTANA AVE Drive with caution.
2,2020-11-02 00:35:20,48.2638,-114.4172,Kalispell,MT,2947, Farm To Market Rd,Incident on FARM TO MARKET RD near CLARK HOMESTEAD LN Drive with caution.
2,2020-12-28 15:31:43,45.7942,-108.4816,Billings,MT,,US Highway 87 E,Incident on I-90 WB near US-87 Drive with caution.
2,2020-11-17 06:29:38,47.6111,-114.6259,Hot Springs,MT,1, Clay Ln,Incident on MT-28 near HIGHWAY 77 Expect delays.
2,2020-11-08 06:08:24,47.5532,-111.5107,Great Falls,MT,144, Vaughn South Frontage Rd,Incident on VAUGHN SOUTH FRONTAGE RD near SUN PRAIRIE RD Drive with caution.
2,2020-12-11 18:05:02,46.2549,-114.1815,Hamilton,MT,100, Ricketts Rd,Incident on RICKETTS RD near BLODGETT CAMP RD Drive with caution.
2,2020-10-24 05:19:05,45.6565,-110.9967,Bozeman,MT,1301, Bozeman Trail Rd,Incident on ARROWLEAF HILLS DR near BOZEMAN TRAIL RD Drive with caution.
4,2017-05-12 17:01:56,45.8042,-108.5749,Billings,MT,2334, US Highway 3,Closed at MT-3/N 27th St - Road closed due to accident.
2,2020-11-11 00:25:08,44.6874,-112.6551,Lima,MT,,I-15 S,Incident on I-15 SB near BESSIA LN Expect delays.
2,2020-10-21 01:35:00,48.0988,-105.6305,Wolf Point,MT,286, E Indian St,Incident on INDIAN ST near HIGHLAND DR Drive with caution.
2,2020-12-13 10:08:03,48.1223,-114.0776,Bigfork,MT,401, McCaffery Rd,Incident on ECHO BAY TRL near MCCAFFERY RD Drive with caution.
2,2020-10-10 12:21:33,46.8904,-112.4894,Lincoln,MT,12613, Stemple Pass Rd,Incident on STEMPLE PASS RD near MARSH CREEK RD Expect delays.
2,2020-12-30 04:44:52,46.9557,-114.1314,Missoula,MT,8798, US Highway 93 N,Incident on US-93 near CARTAGE RD Drive with caution.
2,2018-02-15 12:51:31,47.3067,-114.8252,Plains,MT,131, MT Highway 135 S,At Thompson Falls - Accident. Roadway reduced to 1 lane.
2,2020-10-10 17:00:31.000000000,45.6628,-108.7691,Laurel,MT,,I-90 W,Incident on I-90 WB near US-212 Drive with caution.
2,2020-11-13 14:44:52,48.1686,-114.4676,Kalispell,MT,482, Dawson Trl,Incident on DAWSON TRL near ARTEMISIA WAY Drive with caution.
3,2018-01-08 01:44:55,46.2047,-112.3398,Boulder,MT,,I-15 N,At Boulder River Rd/Exit 151 - Accident. Incident.
2,2020-11-15 20:43:12,45.6413,-111.1475,Bozeman,MT,2623, Blackwood Rd,Incident on BLACKWOOD RD near POTTER SIDING RD Drive with caution.
2,2020-10-24 17:09:58,45.6989,-108.6717,Billings,MT,,US-212 E,Incident on I-90 EB near US-212 Expect delays.
2,2020-10-29 16:53:52,45.7589,-112.8018,Divide,MT,73675, MT Highway 43,Incident on MT-43 near PUMPHOUSE RD Drive with caution.
2,2020-10-30 04:29:52,45.6404,-108.8124,Laurel,MT,2203, Shay Rd,Incident on PARK CITY RD near SHAY RD Drive with caution.
2,2020-10-27 03:58:00,46.7272,-113.6742,Clinton,MT,,Interstate 90,Stationary traffic on I-90 from Exit 120 (I-90) to Rock Creek Rd/Exit 126 (I-90) due to accident.
2,2020-12-13 09:30:46,45.6609,-111.1251,Bozeman,MT,1, Dogwood Dr,Incident on GOOCH HILL RD near DOGWOOD DR Drive with caution.
3,2017-02-23 21:48:42,45.134,-112.7395,Dillon,MT,,I-15 S,Between Exit 56 and MT-278/Exit 59 - Accident.
2,2020-10-24 09:37:05.000000000,47.4226,-115.6333,Saint Regis,MT,,I-90 W,Incident on I-90 WB near MM 0 Drive with caution.
2,2020-10-24 12:58:05,45.6855,-109.4618,Reed Point,MT,,I-90 W,Incident on I-90 WB near MM 396 Drive with caution.
2,2020-10-13 17:59:35,46.8915,-114.1014,Missoula,MT,2200, Grassland Dr,Incident on MULLAN RD near COTE LN Drive with caution.
2,2020-12-29 21:27:21,47.047,-114.2934,Frenchtown,MT,16240, Houle Creek Rd,Incident on HOULE CREEK RD near BROKEN PINE LN Drive with caution.
2,2020-12-17 01:58:59,46.983,-109.7453,Moore,MT,64872, US Highway 87,Incident on US-87 near US-191 Drive with caution.
2,2018-08-14 12:22:07,47.4427,-114.0969,Charlo,MT,4, Eagle Pass Trl,At MT-212/Kicking Horse Rd - Multi-vehicle accident involving vehicle. Lane blocked.
2,2020-12-23 03:37:40,48.3754,-114.4631,Whitefish,MT,6268, Farm To Market Rd,Incident on FARM TO MARKET RD near NOTTA RD Drive with caution.
2,2020-10-24 13:19:05,48.105,-114.459,Kila,MT,101, Browns Meadow Rd,Incident on SMITH LAKE RD near BROWNS MEADOW RD Expect delays.
2,2020-10-24 12:58:05,45.6838,-109.4529,Reed Point,MT,,I-90 W,Incident on I-90 WB near MM 396 Drive with caution.
2,2020-10-22 16:33:53,45.7012,-109.3882,Reed Point,MT,,Springtime Rd,Incident on I-90 WB near MM 400 Drive with caution.
2,2020-12-17 00:58:24,45.1565,-109.3074,Red Lodge,MT,,W Fork Rd,Incident on SKI RUN RD near FORK RD Drive with caution.
2,2020-11-16 17:22:12.000000000,46.5022,-114.0985,Stevensville,MT,399, Heritage St,Incident on HERITAGE ST near SMITH AVE Drive with caution.
2,2020-11-03 18:14:21,45.7841,-108.6309,Billings,MT,4400, Grand Ave,Incident on GRAND AVE near BLUEGRASS DR Drive with caution.
2,2018-01-15 10:52:00,47.4549,-111.0659,Great Falls,MT,8249, US Highway 89,At MT-227/MT-228/Highwood Rd - Accident. emergency vehicles at scene.
3,2019-06-06 08:49:37,48.3614,-111.9364,Conrad,MT,,Lewis and Clark Trl S,Between Bullhead Rd/Exit 352 and MT-44/Valier Rd/Exit 348 - Fuel spillage accident. Roadway reduced to 1 lane.
2,2020-10-25 17:15:40,45.6849,-108.701,Laurel,MT,,I-90 W,Incident on I-90 WB near US-212 Drive with caution.
2,2020-11-27 16:01:48,46.2768,-114.0622,Corvallis,MT,498, Laurie Way,Incident on HAMILTON HEIGHTS RD near WILCOX LN Drive with caution.
2,2020-11-28 00:49:27,46.207,-113.5055,Philipsburg,MT,1, Sandin Ranch Ln,Incident on SKALKAHO RD near SANDIN RANCH LN Drive with caution.
2,2019-02-16 20:20:44,47.0724,-114.0594,Arlee,MT,20995, US Highway 93 N,At MT-200 - Accident. Lane blocked.
2,2020-10-21 16:04:04,45.7303,-108.6018,Billings,MT,7399, S Frontage Rd,Incident on FRONTAGE RD near ZOO DR Drive with caution.
2,2020-11-15 01:55:11.000000000,46.8661,-113.5197,Bonner,MT,2, Camas Rd,Incident on CAMAS RD near HOLE IN THE WALL RD Drive with caution.
2,2020-11-06 02:11:23,46.6696,-112.0213,Helena,MT,6701, N Montana Ave,Incident on MONTANA AVE near CRESTWOOD LN Drive with caution.
3,2019-01-25 18:34:56,45.6511,-110.9423,Bozeman,MT,,I-90 W,At Bozeman Trail Rd/Exit 313 - Accident. Jackknifed articulated truck. Lane blocked.
2,2020-10-19 05:33:22.000000000,48.3236,-114.1594,Columbia Falls,MT,2798, Highway 206,Incident on MT-206 near WINDY ACRES DR Drive with caution.
2,2020-12-31 01:46:48,48.3707,-114.241,Columbia Falls,MT,6198, US Highway 2 W,Incident on MT-40 near US-2 Expect delays.
2,2020-12-31 15:13:46,45.6648,-111.1244,Bozeman,MT,98, Lancelot Ln,Incident on LANCELOT LN near TRISTRAM DR Drive with caution.
2,2020-12-09 20:32:01,45.4854,-108.9705,Joliet,MT,113, E Front St,Incident on US-212 near STATE ST Drive with caution.
2,2020-11-23 22:25:06,47.457,-114.0962,Charlo,MT,34800, Kicking Horse Rd,Incident on KICKING HORSE RD near US-93 Expect delays.
2,2020-10-18 21:27:57,45.661,-110.6479,Livingston,MT,,I-90 E,Incident on I-90 EB near MM 316 Drive with caution.
2,2020-09-17 22:36:12,47.1642,-114.0859,Arlee,MT,6, Morigeau St,Incident on A ST near MORIGEAU ST Drive with caution.
2,2020-11-08 15:33:46,46.9333,-114.1821,Missoula,MT,13201, Harpers Bridge Rd,Incident on MULLAN RD near HARPERS BRIDGE RD Drive with caution.
2,2020-12-12 05:22:18,45.6639,-108.7923,Laurel,MT,,I-90 E,Incident on I-90 EB near MM 434 Expect delays.
2,2019-10-09 08:39:52,45.6467,-110.8894,Bozeman,MT,,US-191 S,At Trail Crk Road/Exit 316 - Accident. Two lanes blocked.
2,2020-11-22 04:37:05,47.6595,-114.626,Hot Springs,MT,37, Garden Creek Rd,Incident on MT-28 near RED BARN RD Drive with caution.
2,2016-11-03 09:38:50,45.5662,-108.838,Joliet,MT,4597, US Highway 310,At US-212 - Accident.
2,2020-09-28 05:32:18,47.689,-104.1419,Sidney,MT,35098, County 123,Incident on COUNTY ROAD 351 near COUNTY 123 Drive with caution.
2,2020-11-25 18:13:26,45.7577,-111.1646,Belgrade,MT,,E Frank Rd,Incident on FRANK RD near AIRWAY BLVD Drive with caution.
2,2020-10-24 22:59:54,48.2664,-114.2768,Kalispell,MT,1, Colter Trl,Incident on TRUMBLE CREEK RD near COLTER TRL Drive with caution.
2,2020-12-14 18:23:03.000000000,46.3791,-105.8227,Miles City,MT,301, Cemetery Rd,Incident on CEMETERY RD near HAYNES AVE Drive with caution.
2,2020-11-29 20:07:33,48.6807,-114.8809,Eureka,MT,2001, Fortine Creek Rd,Incident on FORTINE CREEK RD near BRIMSTONE RD Drive with caution.
2,2020-10-24 01:19:05,46.8754,-113.5643,Bonner,MT,196, Swanson Ln,Incident on SWANSON LN near POTOMAC RD Drive with caution.
2,2020-10-15 13:48:43,46.9178,-113.4389,Bonner,MT,3903, Sunset Hill Rd,Incident on MT-200 near SUNSET HILL RD Expect delays.
4,2016-08-31 14:16:36,48.189,-114.3956,Kalispell,MT,2402, US Highway 2 W,Closed at Hot Springs - Road closed due to accident.
2,2020-12-09 17:59:01,46.8767,-114.1523,Missoula,MT,10810, Saddleback Ln,Incident on SADDLEBACK LN near BIG FLAT RD Drive with caution.
2,2020-09-17 22:03:32,47.7062,-114.1847,Polson,MT,240, Rocky Point Rd,Incident on ROCKY POINT RD near US-93 Expect delays.
2,2020-10-24 06:16:42,47.6891,-114.1199,Polson,MT,40698, MT Highway 35,Incident on EAGLE NEST DR near MT-35 Drive with caution.
2,2020-11-09 10:40:27.000000000,46.0085,-112.636,Butte,MT,,I-90 W,Incident on I-15 NB near MM 122 Drive with caution.
2,2020-09-21 22:31:10,48.1202,-114.4585,Kila,MT,420, 2nd St,Incident on KILA RD near US-2 Drive with caution.
2,2020-11-06 20:38:23,45.7781,-111.2214,Belgrade,MT,268, N River Rock Dr,Incident on GREEN TREE DR near RIVER ROCK DR Drive with caution.
4,2017-01-04 23:24:01,45.7492,-108.5582,Billings,MT,,I-90 E,Closed between Mullowney Ln/King Ave/Exit 446 and Billings Blvd/Exit 447 - Road closed due to accident.
2,2020-12-07 03:38:28,46.5591,-114.0593,Stevensville,MT,4939, Eastside Hwy,Incident on EASTSIDE HWY near AMBROSE CREEK RD Expect delays.
2,2020-12-09 19:29:01,47.6889,-114.1256,Polson,MT,,US Highway 93,Incident on US-93 near MT-35 Drive with caution.
2,2020-10-21 06:33:45,47.8149,-112.1858,Choteau,MT,799, 4th St NE,Incident on US-89 near 5TH LN Drive with caution.
4,2017-01-17 10:48:06,46.587,-111.8746,East Helena,MT,4193, E US Highway 12,Closed at Lake Helena Dr - Road closed due to accident.
2,2020-11-17 15:13:13,47.3542,-114.7788,Plains,MT,8502, MT Highway 200,Incident on MT-200 near MT-135 Drive with caution.
2,2017-01-31 11:02:45,48.0737,-112.3334,Pendroy,MT,101, W Pendroy Rd,At 33rd Rd NW - Accident.
2,2020-11-26 00:16:30,45.6629,-110.7067,Livingston,MT,,US-191 S,Slow traffic on I-90 W - US-191 S from US-10/Exit 330 (I-90) to MT-85/Exit 298 (I-90) due to accident.
2,2020-11-02 03:36:51,45.8805,-108.6706,Billings,MT,7348, MT Highway 3,Incident on MT-3 near ALKALI CREEK RD Expect delays.
2,2020-10-15 13:22:40,46.233,-112.7669,Deer Lodge,MT,,I-90 W,Incident on I-90 WB near MM 197 Expect delays.
2,2020-11-16 01:16:12,48.3386,-114.3346,Whitefish,MT,104, Timber Ln,Incident on ANTELOPE TRL near TIMBER LN Drive with caution.
2,2020-11-01 17:53:34.000000000,45.8024,-108.4384,Billings,MT,1831, Old Hardin Rd,Incident on OLD HARDIN RD near SCOTT ST Drive with caution.
2,2020-12-21 04:55:40,48.5175,-108.7812,Harlem,MT,,US Highway 2,Incident on ELLIS RD near US-2 Expect delays.
2,2020-10-15 13:44:57,45.6274,-111.0834,Bozeman,MT,5501, Patterson Rd,Incident on FOWLER LN near PATTERSON RD Drive with caution.
2,2020-12-02 16:39:09.000000000,46.6805,-112.0213,Helena,MT,1199, Rinay Rd,Incident on MONTANA AVE near RINAY RD Expect delays.
2,2020-12-31 00:04:46,45.7646,-111.1759,Belgrade,MT,498, Alaska Frontage Rd,Incident on ALASKA FRONTAGE RD near ROCK RD Drive with caution.
2,2020-10-24 18:01:07,46.9545,-112.106,Wolf Creek,MT,,I-15 N,Incident on I-15 NB near US-287 Drive with caution.
2,2020-11-01 00:20:20.000000000,45.9971,-112.6526,Butte,MT,,I-15 N,Incident on I-15 NB near MM 121 Expect delays.
2,2020-12-04 01:50:48,46.8855,-114.0809,Missoula,MT,6101, Mullan Rd,Incident on MULLAN RD near SHINDIG DR Drive with caution.
2,2020-12-03 05:03:30,45.7976,-108.4506,Billings,MT,4098, Melody Ln,Incident on MELODY LN near US-87 Drive with caution.
2,2018-03-20 07:21:23,45.5115,-108.8957,Joliet,MT,10001,US Highway 212,Accident on US-212 Westbound at Mitchell Ln.
2,2020-11-25 17:31:39,46.0451,-112.451,Whitehall,MT,,I-15 S,Incident on I-15 SB near MM 134 Drive with caution.
2,2020-09-28 20:40:28,46.8858,-110.2535,Hobson,MT,2, Gypsum Ln,Incident on FORK RD near GYPSUM LN Drive with caution.
2,2020-11-12 14:39:10,47.44,-111.1476,Sand Coulee,MT,,Stockett Rd,Incident on STOCKETT RD near JOHNSON RD Drive with caution.
2,2020-11-12 02:46:08.000000000,46.716,-112.0208,Helena,MT,7743, N Montana Ave,Incident on MONTANA AVE near YURI RD Drive with caution.
2,2020-11-26 00:43:27,45.7342,-111.0987,Bozeman,MT,,I-90 W,Incident on I-90 WB near BOZEMAN Drive with caution.
2,2020-12-27 23:40:21,46.8935,-113.4563,Bonner,MT,34562, MT Highway 200 E,Incident on GARNET RANGE RD near MT-200 Drive with caution.
4,2017-10-13 17:28:09,48.2596,-114.2711,Kalispell,MT,2948, US Highway 2 E,Closed at Whitefish - Road closed due to accident.
2,2020-11-17 05:55:00,46.6286,-113.0805,Drummond,MT,,I-90 E,Incident on I-90 EB near DRUMMOND Expect long delays.
2,2020-10-25 17:03:35,45.8296,-109.9215,Big Timber,MT,,I-90 W,Incident on I-90 WB near MM 370 Drive with caution.
2,2017-07-06 08:06:59,48.1648,-106.5449,Glasgow,MT,54600, US Highway 2,At MT-24 - Accident.
2,2020-10-26 22:14:15,45.7659,-111.1851,Belgrade,MT,2, Alaska Frontage Rd,Incident on AMSTERDAM RD near JACKRABBIT LN Drive with caution.
2,2016-12-30 17:27:55,46.9409,-104.0798,Wibaux,MT,,I-94 W,At MT-7/Exit 242 - Accident.
2,2020-12-30 00:25:22,45.7349,-108.5986,Billings,MT,,I-90 W,Incident on I-90 WB near MM 443 Expect delays.
3,2018-09-10 15:30:57,48.0691,-115.9291,Noxon,MT,603, MT Highway 200,At Montana/Idaho State Line - Accident.
2,2020-11-10 19:42:26,46.7154,-107.8344,Musselshell,MT,782, Mosby Road 500,Incident on MOSBY RD near BRIDGE RD Drive with caution.
2,2020-11-11 03:13:08,47.133,-111.8949,Cascade,MT,,I-15 N,Incident on I-15 NB near MM 240 Drive with caution.
2,2020-10-24 18:55:00,45.6057,-109.0316,Park City,MT,,I-90 W,Slow traffic on I-90 from US-10/Exit 426 (I-90) to MT-78/Exit 408 (I-90) due to accident.
2,2020-11-13 01:42:56,48.2256,-114.1008,Kalispell,MT,1295, Foothill Rd,Incident on FOOTHILL RD near LAKE BLAINE RD Drive with caution.
3,2017-12-02 23:26:38,46.4924,-112.7287,Deer Lodge,MT,,I-90 W,Between Exit 179 and Exit 175 - Accident. Police activity ongoing.
2,2020-11-02 16:11:21,45.7366,-108.5619,Billings,MT,5838, Stearns Cir,Incident on STEARNS CIR near KENNISON PL Drive with caution.
2,2020-12-28 04:40:43,46.5894,-111.9307,Helena,MT,,E US Highway 12,Incident on 4TH ST near US-12 Drive with caution.
2,2020-11-12 23:31:08,48.4388,-114.3081,Whitefish,MT,960, Northwoods Dr,Incident on NORTHWOODS DR near MORRISON RD Drive with caution.
4,2019-01-07 08:59:22,46.4657,-111.9825,Clancy,MT,,I-15 N,Closed between Exit 182 and MT-518/Exit 187 - Road closed due to accident.
2,2020-10-24 20:34:07,45.3219,-107.3432,Lodge Grass,MT,,I-90 W,Incident on I-90 WB near MM 530 Drive with caution.
3,2018-10-01 06:03:15,45.656,-110.9472,Bozeman,MT,,I-90 E,At Bozeman Trail Rd/Exit 313 - Accident. emergency vehicles at scene.
2,2020-12-31 01:27:01,48.1866,-114.3332,Kalispell,MT,,US-93 Alt N,Incident on US-93 near FOYS LAKE RD Expect delays.
2,2020-11-06 11:54:37,47.703,-114.6262,Lonepine,MT,2, Murray Ln,Incident on LONEPINE RD near MT-28 Expect delays.
2,2020-11-10 20:27:59,47.906,-114.1981,Rollins,MT,59, Central Ave,Incident on ROLLINS LAKESHORE DR near US-93 Drive with caution.
2,2020-11-29 20:07:33,48.6591,-114.8892,Eureka,MT,501, Lime Creek Rd,Incident on LIME CREEK RD near FORTINE CREEK RD Drive with caution.
2,2020-10-30 18:23:20,47.5297,-114.1403,Ronan,MT,,Round Butte Rd,Incident on ROUND BUTTE RD near ROCKY BUTTE RD Drive with caution.
2,2020-10-15 00:31:40.000000000,46.4722,-114.0835,Stevensville,MT,252, Higgins Ln,Incident on HIGGINS LN near EASTSIDE HWY Expect delays.
2,2020-12-23 00:43:40,46.9547,-114.1372,Missoula,MT,,I-90 E,Incident on I-90 EB near MT-200 Expect delays.
2,2020-12-22 19:24:06,46.5398,-112.8313,Garrison,MT,,I-90 E,Incident on I-90 EB near MM 174 Expect delays.
2,2020-12-12 02:12:30,45.6448,-110.5551,Livingston,MT,,I-90 W,Stationary traffic on I-90 W - US-191 S from I-90/Exit 337 (I-90) to US-89/Exit 333 (I-90) due to accident.
2,2020-09-23 10:03:01,45.7436,-111.2359,Bozeman,MT,2565, W Cameron Bridge Rd,Incident on CAMERON BRIDGE RD near RIVER RD Expect delays.
2,2020-12-19 02:14:38.000000000,45.7681,-111.1613,Belgrade,MT,,Airway Blvd,Incident on FRONTAGE RD near AIRWAY BLVD Drive with caution.
2,2020-11-27 04:13:27,46.8873,-114.0683,Missoula,MT,5100, Mullan Rd,Incident on MULLAN RD near MARIE DR Drive with caution.
2,2020-12-16 12:08:03,47.4558,-115.6953,Saint Regis,MT,,I-90 E,Incident on I-90 EB near MM 0 Drive with caution.
2,2017-11-02 13:46:12,48.0367,-114.2277,Lakeside,MT,6731, Highway 93 S,At MT-82/Forest Hill Rd - Accident. Lane blocked.
2,2020-11-18 22:58:04,48.5132,-111.872,Shelby,MT,,Harding,Incident on HARDING near US-2 Drive with caution.
2,2020-10-23 02:07:05,48.1924,-114.0642,Kalispell,MT,2541, Foothill Rd,Incident on FOOTHILL RD near PETERS CREEK WAY Drive with caution.
2,2020-10-25 17:34:07.000000000,47.3562,-115.2988,Saint Regis,MT,,I-90 E,Incident on I-90 EB near MM 22 Drive with caution.
4,2017-05-17 13:25:16,45.9212,-112.4159,Whitehall,MT,,I-90 W,Closed at Homestake Pass/Exit 233 - Road closed due to accident.
2,2019-08-14 13:02:55,45.7315,-113.9245,Sula,MT,8319, Lewis and Clark Trl,At MT-43 - Accident. Roadway reduced to 1 lane.
2,2020-10-19 17:30:57,47.4569,-111.4105,Great Falls,MT,,I-15 S,Incident on I-15 SB near UNDERPASS 2FRS Drive with caution.
2,2020-10-25 01:07:07,45.6639,-108.764,Laurel,MT,,US-212 E,Incident on I-90 EB near POPE RD Drive with caution.
2,2017-11-16 15:03:38,46.5803,-112.2755,Helena,MT,8424, W US Highway 12,At MT-356/Williams St - Jackknifed articulated truck.
2,2020-10-25 00:19:07,46.118,-112.8,Anaconda,MT,,I-90 E,Incident on I-90 EB near STEWART ST Drive with caution.
2,2020-10-25 01:48:00,45.6493,-109.2528,Columbus,MT,,I-90 W,Stationary traffic on I-90 from US-10/Exit 426 (I-90) to Springtime Rd/Exit 400 (I-90) due to accident.
2,2020-11-25 16:07:06,47.9093,-108.7113,Zortman,MT,,State Highway 66,Incident on MT-66 near STATE HIGHWAY 66 Drive with caution.
2,2017-07-28 11:43:06,46.5957,-112.5839,Garrison,MT,2444, US Highway 12 E,At MT-141 - Accident.
2,2020-12-31 00:44:00,47.8855,-114.2136,Rollins,MT,23818, US Highway 93,Incident on US-93 NB near DAYTON Expect long delays.
2,2020-12-13 00:45:17,48.3744,-114.2108,Columbia Falls,MT,1099, Best Way,Incident on MEADOW LAKE BLVD near BEST WAY Drive with caution.
2,2020-11-19 02:08:14,47.0925,-104.7693,Glendive,MT,,Seven Mile Dr,Incident on TOWNE ST near SEVEN MILE DR Drive with caution.
2,2020-10-25 01:21:12,45.6989,-108.6717,Billings,MT,,US-212 E,Incident on I-90 EB near US-212 Drive with caution.
2,2020-12-11 22:11:02,46.9538,-114.1356,Missoula,MT,,I-90 E,Incident on I-90 EB near COAL MINE RD Drive with caution.
2,2020-10-24 09:07:05,46.4844,-112.7236,Deer Lodge,MT,,I-90 W,Incident on I-90 WB near MM 179 Drive with caution.
2,2020-12-22 23:52:40,48.2259,-114.2988,Kalispell,MT,1, Palmer Dr,Incident on EVERGREEN DR near PALMER DR Expect delays.
2,2020-10-23 00:58:35,45.8704,-108.3017,Huntley,MT,1200, Pryor Creek Rd,Incident on SQUAW CREEK RD near PRYOR CREEK RD Expect delays.
2,2020-12-10 01:38:02,46.6803,-112.0523,Helena,MT,6860, Green Meadow Dr,Incident on GREEN MEADOW DR near FIELDCROSS LN Drive with caution.
2,2020-12-28 04:22:22,46.237,-114.1501,Hamilton,MT,179, Golf Course Rd,Incident on GOLF COURSE RD near DORAN LN Drive with caution.
2,2020-12-12 18:35:03,47.5676,-111.7036,Vaughn,MT,1, Memory Ln,Incident on DRACUT HILL RD near MEMORY LN Drive with caution.
2,2020-12-22 06:31:40,48.2158,-114.3478,Kalispell,MT,,US-93 Alt S,Incident on US-93 near MM 5 Drive with caution.
2,2020-10-21 06:52:04,45.054,-107.3368,Wyola,MT,,I-90 W,Incident on I-90 WB near MM 549 Drive with caution.
2,2020-10-22 17:52:39.000000000,45.8022,-108.4138,Billings,MT,313, Johnson Ln,Incident on JOHNSON LN near SUNRISE AVE Expect delays.
2,2020-11-13 23:46:55,48.2,-114.0724,Kalispell,MT,101, Jade Ln,Incident on FOOTHILL RD near JADE LN Drive with caution.
2,2020-11-02 07:24:03,47.6269,-114.1133,Polson,MT,56034, US Highway 93,Incident on US-93 near MUD LAKE TRL Drive with caution.
2,2020-12-19 03:38:38,46.7475,-114.1399,Lolo,MT,10250, Highway 12 W,Incident on US-12 near LEWIS AND CLARK HWY Drive with caution.
2,2020-11-12 02:19:55,48.1682,-114.0406,Kalispell,MT,100, Deerfoot Trl,Incident on DEERFOOT TRL near FOOTHILL RD Drive with caution.
2,2020-10-23 22:43:05,48.2188,-114.2673,Kalispell,MT,195, E Cottonwood Dr,Incident on COTTONWOOD DR near MT-35 Drive with caution.
2,2020-11-08 21:31:01,46.5599,-111.9103,East Helena,MT,,MT Highway 518,Incident on MT-518 near BUFFALO RUN RD Drive with caution.
2,2020-12-22 01:40:40,45.6711,-111.1812,Bozeman,MT,,Huffine Ln,Incident on HUFFINE LN near ARROWHEAD TRL Drive with caution.
2,2020-11-08 20:14:27,46.7815,-105.3164,Terry,MT,,I-94 E,Incident on I-94 EB near MM 176 Drive with caution.
2,2020-11-14 00:12:26,47.7157,-111.6634,Power,MT,,I-15 S,Incident on I-15 SB near MM 302 Expect delays.
2,2018-04-02 07:30:24,45.6259,-109.1925,Columbus,MT,,I-90 E,At Columbus Rest Area - Accident involving heavy truck. Left lane blocked. Roadway reduced to 1 lane.
2,2020-11-09 11:06:41,45.7505,-108.5541,Billings,MT,,I-90 W,Incident on I-90 WB near MM 446 Drive with caution.
4,2019-10-30 15:40:31,47.2657,-114.1736,Ravalli,MT,83715, US Highway 93,Closed at MT-200 - Road closed due to accident.
2,2017-08-29 15:55:36,46.6172,-113.0513,Drummond,MT,,US-12 W,At MT-271/Exit 154 - Accident.
2,2020-10-13 01:45:43,46.8832,-113.9941,Missoula,MT,,I-90 W,Incident on I-90 WB near MM 104 Expect delays.
2,2020-11-08 19:25:00,45.6933,-110.4886,Livingston,MT,,US-89 N,Slow traffic on I-90 from I-90/Exit 337 (I-90) to Mission Creek Rd/Exit 343 (I-90) due to accident.
2,2020-11-26 04:04:27,45.7064,-110.9983,Bozeman,MT,3826, Bridger Canyon Rd,Incident on MT-86 near BRASS LANTERN CT Drive with caution.
2,2020-11-03 01:22:36,48.2871,-114.1972,Columbia Falls,MT,1773, Columbia Falls Stage,Incident on COLUMBIA FALLS STAGE near SWAN RIDGE RD Drive with caution.
2,2020-11-29 16:07:28,45.5948,-109.054,Columbus,MT,2038, Highway 10,Incident on HIGHWAY 10 near RONAN RANCH RD Drive with caution.
2,2020-11-23 16:15:30,48.0929,-114.1121,Bigfork,MT,2558, Highway 82,Stationary traffic on MT-82 from MT-35 (MT-82) to US-93 (MT-82) due to accident.
2,2020-11-02 00:53:20,46.6182,-107.5508,Ingomar,MT,,US-12 E,Incident on US-12 near SUMATRA RD Drive with caution.
2,2020-12-15 10:26:03,45.7125,-111.0214,Bozeman,MT,1825, Story Mill Rd,Incident on STORY MILL RD near CADDIE CT Drive with caution.
2,2020-11-02 18:20:21,46.9217,-113.9588,Missoula,MT,6204, Rattlesnake Dr,Incident on SAWMILL GULCH RD near RATTLESNAKE DR Drive with caution.
2,2020-12-02 00:58:28,46.2558,-114.1348,Hamilton,MT,230, Eastside Hwy,Incident on EASTSIDE HWY near FAIRGROUNDS RD Drive with caution.
2,2020-11-03 03:14:21,46.7792,-113.7166,Clinton,MT,19192, E Mullan Rd,Incident on MULLAN RD near CLOWN LN Drive with caution.
2,2020-10-25 13:46:07,48.2802,-114.3685,Kalispell,MT,799, Church Dr,Incident on CHURCH DR near SPRINGCREEK RD Drive with caution.
2,2020-12-13 23:38:51,46.5156,-114.0667,Stevensville,MT,401, N Burnt Fork Rd,Incident on BURNT FORK RD near EASTSIDE HWY Drive with caution.
2,2020-11-30 14:22:28,45.6837,-111.0713,Bozeman,MT,401, N Western Dr,Incident on WESTERN DR near VILLARD ST Expect delays.
2,2020-11-19 01:38:00,45.7089,-111.0615,Bozeman,MT,,I-90 E,Incident on I-90 EB near N 19TH AVE Expect long delays.
2,2020-11-26 07:07:27,45.6445,-110.5724,Livingston,MT,,I-90 W,Incident on I-90 WB near MM 333 Drive with caution.
2,2020-12-17 17:13:09,46.9346,-114.1454,Missoula,MT,6636, Deschamps Ln,Incident on DESCHAMPS LN near ROLLER COASTER RD Expect delays.
2,2020-11-18 18:04:05,46.5246,-114.1137,Stevensville,MT,101, Kinsman Dr,Incident on US-93 near STEVENSVILLE CUTOFF Drive with caution.
2,2020-12-23 19:17:32,47.5297,-114.1518,Ronan,MT,37699, Round Butte Rd,Incident on ROUND BUTTE RD near STAGECOACH TRL Drive with caution.
2,2020-01-07 09:36:33,47.4426,-114.0969,Charlo,MT,40998, US Highway 93,At MT-200 - Accident.
2,2020-12-01 02:36:45,45.1719,-112.6978,Dillon,MT,,I-15 N,Incident on I-15 NB near MM 59 Drive with caution.
2,2020-10-24 09:37:05,47.4226,-115.6333,Saint Regis,MT,,I-90 W,Incident on I-90 WB near MM 0 Drive with caution.
2,2020-11-09 18:48:30,47.2989,-115.1059,Saint Regis,MT,,I-90 W,Slow traffic on I-90 from MT-135/Exit 33 (I-90) to Exit 26 (I-90) due to accident.
2,2017-01-10 06:22:21,46.3848,-112.027,Jefferson City,MT,,I-15 N,Between Exit 176 and Exit 182 - Accident.
2,2020-12-03 01:55:39,46.6317,-114.0788,Florence,MT,6398, Eastside Hwy,Incident on MT-203 near US-93 Drive with caution.
2,2020-11-16 02:30:09,47.6846,-114.1777,Polson,MT,36425, Kerr Dam Rd,Incident on KERR DAM RD near HIGHLAND DR Drive with caution.
2,2020-12-27 05:47:35,45.6269,-108.9456,Park City,MT,,Valley Creek Rd,Incident on VALLEY CREEK RD near FRONTAGE RD Expect delays.
2,2020-11-21 10:28:05,45.8532,-111.3391,Manhattan,MT,,Wooden Shoe Trailer Ct,Incident on WOODEN SHOE LN near WOODEN SHOE TRAILER CT Drive with caution.
2,2020-10-28 17:35:44,47.4987,-112.2217,Augusta,MT,14291, Dry Creek Rd,Incident on MT-21 near DRY CREEK RD Drive with caution.
2,2020-10-28 14:55:18,48.101,-114.4846,Kila,MT,5300, US Highway 2 W,Incident on US-2 near JACKSON MEADOWS RD Drive with caution.
2,2018-02-09 08:59:12,46.7916,-114.1025,Lolo,MT,8329, US Highway 93 S,At US-93 S/MT-93/S Reserve St - Accident. Roadway reduced to 1 lane. emergency vehicles at scene.
2,2020-09-26 04:26:19,45.6298,-108.403,Billings,MT,9301, Pryor Rd,Incident on PRYOR RD near VERMANDEL RD Drive with caution.
3,2017-11-28 07:42:23,45.6346,-108.9187,Park City,MT,,I-90 W,Between Old US-10/Exit 426 and Columbus Rest Area - Accident involving 2 heavy trucks. Left lane blocked.
2,2020-12-25 21:31:41.000000000,45.6856,-111.1453,Bozeman,MT,2200, Durston Rd,Incident on LOVE LN near DURSTON RD Drive with caution.
2,2018-02-09 16:04:28,48.1086,-114.4709,Kila,MT,5015, US Highway 2 W,At Kila - Accident. Single alternate lane traffic.
2,2020-11-18 00:22:13,47.1104,-114.7869,Superior,MT,,I-90 E,Incident on I-90 EB near MM 55 Drive with caution.
2,2020-10-27 15:57:51,45.3658,-110.755,Livingston,MT,1, Aries Dr,Incident on ARIES DR near TAURUS RD Drive with caution.
2,2017-01-12 17:49:33,48.019,-114.2247,Lakeside,MT,7229, US Highway 93,At MT-28 - Accident.
2,2020-10-25 01:21:12,45.6989,-108.6717,Billings,MT,,US-212 E,Incident on I-90 EB near US-212 Drive with caution.
3,2019-02-23 23:57:47,46.8046,-114.0981,Missoula,MT,7093, US Highway 93 S,At US-93/Lewis and Clark Hwy - Accident. Lane closed.
2,2020-10-20 01:21:35,46.0512,-107.7615,Custer,MT,5492, Custer Frontage Rd,Incident on CUSTER FRONTAGE RD near REED CREEK RD Drive with caution.
3,2018-04-17 10:25:25,45.7121,-112.7025,Divide,MT,,Moose Creek Rd,Left lane closed due to accident and accident investigation work on I-15 Northbound from Exit 85 MT-91 Rock Creek Rd to Exit 99 Moose Creek Rd.
2,2020-12-13 23:56:03,45.5884,-111.0819,Bozeman,MT,,Hyalite Canyon Rd,Incident on HYALITE CANYON RD near 19TH AVE Drive with caution.
2,2020-11-10 07:44:42,48.1041,-114.6576,Marion,MT,283, Pleasant Valley Rd,Incident on PLEASANT VALLEY RD near BITTERROOT ESTATES DR Drive with caution.
2,2020-11-15 02:52:11,45.828,-111.704,Cardwell,MT,84669, US Highway 287 N,Incident on US-287 near JEFFERSON RIVER RD Drive with caution.
2,2020-10-24 22:13:08,45.6682,-111.001,Bozeman,MT,,Sunset Blvd,Incident on OLD YELLOWSTONE TRL near HAGGERTY LN Drive with caution.
2,2020-10-25 00:13:08,45.5968,-109.102,Columbus,MT,,I-90 W,Incident on I-90 WB near COLUMBUS MOLT RD Drive with caution.
2,2020-12-04 05:19:29,47.3739,-115.3455,Saint Regis,MT,,I-90 W,Incident on I-90 WB near MM 18 Drive with caution.
3,2019-04-30 22:37:19,47.3139,-115.2253,Saint Regis,MT,,I-90 E,Between Two Mile Road/Exit 30 and Drexel Rd/Exit 25 - Oil spillage accident. Oil on road. Left lane blocked.
2,2020-11-26 18:20:38,45.6711,-111.0592,Bozeman,MT,,Grant Chamberlain Dr,Incident on COLLEGE ST near 16TH AVE Drive with caution.
2,2020-10-27 20:18:51,45.6992,-111.7621,Harrison,MT,,Lake Rd,Incident on LAKE RD near OLD MILL RD Drive with caution.
2,2020-10-28 09:40:51,46.5912,-111.9915,Helena,MT,2799, Prospect Ave,Incident on US-287 near MM 18 Drive with caution.
2,2020-11-09 16:50:38,46.6514,-111.8939,Helena,MT,4027, Lake Helena Dr,Incident on LAKE HELENA DR near FOX RIDGE DR Drive with caution.
2,2020-11-13 01:34:08,46.2067,-114.1556,Hamilton,MT,698, US Highway 93 S,Incident on US-93 near SKALKAHO HWY Drive with caution.
4,2020-12-14 23:23:00,45.5957,-106.8357,Busby,MT,,US Highway 212,Incident on US-212 EB near LAME DEER Road closed. Take alternate route.
2,2020-11-26 00:43:27.000000000,45.7342,-111.0987,Bozeman,MT,,I-90 W,Incident on I-90 WB near BOZEMAN Drive with caution.
2,2020-12-25 02:34:35,47.0335,-114.3274,Huson,MT,,I-90 E,Incident on I-90 EB near MM 85 Drive with caution.
2,2020-12-16 09:23:03.000000000,46.9422,-112.9471,Helmville,MT,30998, MT Highway 141,Incident on MT-200 near MT-141 Drive with caution.
4,2016-12-16 13:20:42,45.7041,-109.5465,Reed Point,MT,,I-90 E,Closed between Division St/Exit 392 and MT-78/Exit 408 - Road closed due to accident.
2,2020-12-24 03:46:17,45.5591,-108.8582,Joliet,MT,,Farewell Rd,Incident on US-310 near US-212 Drive with caution.
2,2020-10-24 12:02:00,47.4475,-115.6933,Saint Regis,MT,,I-90 W,Stationary traffic on I-90 from Exit 5 (I-90) to I-90 Bus/Exit 69 (I-90) due to accident.
3,2018-09-06 14:17:20,48.1229,-114.2598,Kalispell,MT,4055, US Highway 93 S,At Fir Ter - Accident. Three lanes blocked.
2,2020-10-09 02:39:30,45.7523,-108.5411,Billings,MT,,US-212 W,Slow traffic on I-90 from Billings Blvd/Exit 447 (I-90) to Mullowney Ln/King Ave/Exit 446 (I-90) due to accident.
2,2020-11-13 19:01:51,46.9184,-104.1891,Wibaux,MT,12, Black Diamond Rd,Incident on BLACK DIAMOND RD near HIGHWAY 7 Drive with caution.
2,2017-01-10 10:21:49,46.3604,-111.5494,Townsend,MT,,US Highway 287,At Whitehorse Rd - Accident.
2,2020-10-24 05:36:47,45.7389,-110.2076,Big Timber,MT,,I-90 W,Incident on I-90 WB near MM 354 Drive with caution.
2,2020-12-07 19:18:13,46.119,-114.1787,Hamilton,MT,2000, US Highway 93 S,Incident on LOST HORSE RD near US-93 Drive with caution.
2,2020-12-28 20:07:43,46.769,-113.7138,Clinton,MT,1098, Woodville Ave,Incident on MONTANA AVE near WOODVILLE AVE Drive with caution.
2,2020-10-25 18:36:50,45.7677,-111.206,Belgrade,MT,5999, Thorpe Rd,Incident on THORPE RD near APPLES WAY Drive with caution.
2,2020-12-21 01:55:24,45.4355,-108.532,Lodge Grass,MT,,Pryor Rd,Incident on PRYOR RD near PRYOR CREEK RD Drive with caution.
2,2018-11-08 09:11:15,47.2985,-115.105,Saint Regis,MT,,I-90 E,At MT-135/Exit 33 - Accident. Roadway reduced to 1 lane. Lane blocked.
2,2020-11-11 02:09:32,48.4143,-114.3084,Whitefish,MT,2399, E 2nd St,Incident on EDGEWOOD DR near 2ND ST Drive with caution.
2,2017-12-13 15:11:11,46.5918,-111.9449,Helena,MT,3630, E US Highway 12,At MT-518/S Lane Ave - Accident. Lane blocked.
2,2020-10-28 01:42:08,45.6992,-109.384,Columbus,MT,,I-90 W,Incident on I-90 WB near MM 400 Drive with caution.
2,2020-09-14 20:42:32,47.6456,-114.0384,Polson,MT,38600, Ketalee Ln,Incident on MINESINGER TRL near KETALEE LN Drive with caution.
2,2020-10-24 03:33:30,45.6307,-109.1995,Columbus,MT,,Columbus Molt Rd,Slow traffic on I-90 from US-10/Exit 426 (I-90) to MT-78/Exit 408 (I-90) due to accident.
2,2020-12-28 20:31:43,45.2608,-111.3112,Big Sky,MT,2, Big Pine Dr,Incident on LONE MOUNTAIN TRL near BIG PINE DR Drive with caution.
2,2019-02-06 09:23:57,47.5409,-111.4295,Great Falls,MT,,I-15 N,At Manchester Rd/Exit 286 - Accident. Roadway reduced to 1 lane. Lane blocked.
2,2020-10-16 14:43:14,45.636,-108.7339,Laurel,MT,3300, Clarks Point Dr,Incident on CLARKS POINT DR near SPRING CREEK RD Drive with caution.
3,2019-03-13 22:51:09,48.1276,-111.9012,Conrad,MT,,I-15 N,Between I-15-BR/Midway Rd/Exit 335 and I-15-BR/Exit 339 - Overturned heavy truck. Single alternate lane traffic.
2,2020-10-24 18:07:07,46.3385,-113.3205,Philipsburg,MT,45, Marshall Creek Rd,Incident on ROCK CREEK RD near MT-1 Expect delays.
2,2020-11-14 05:57:51,48.2981,-114.2518,Kalispell,MT,4052, US Highway 2 E,Incident on US-2 near GRIGG RD Expect delays.
4,2019-10-09 22:11:21,45.6523,-110.6155,Livingston,MT,,I-90 E,Between I-90-BL/US-10/Exit 330 and US-89/Exit 333 - Accident. Two lanes blocked.
2,2020-11-12 00:22:08,45.7573,-108.4943,Billings,MT,,Sugar Ave,Incident on I-90 EB near US-212 Drive with caution.
2,2020-11-15 18:28:12,48.1924,-114.0642,Kalispell,MT,2541, Foothill Rd,Incident on PETERS CREEK WAY near FOOTHILL RD Drive with caution.
2,2020-11-09 03:37:00,45.8019,-108.3015,Huntley,MT,,I-90 W,Slow traffic on I-90 from Pryor Creek Rd/Exit 462 (I-90) to I-94/Exit 456 (I-90) due to accident.
2,2020-11-12 10:18:30,46.868,-113.9457,Missoula,MT,,I-90 W,Stationary traffic on US-12 W - I-90 W - MT-200 W from MT-200/Exit 109 (I-90) to MT-200/Exit 107 (I-90) due to accident.
2,2020-10-25 01:21:12,45.6989,-108.6717,Billings,MT,,US-212 E,Incident on I-90 EB near US-212 Drive with caution.
2,2018-02-08 14:17:57,46.2662,-106.5071,Forsyth,MT,,I-94 E,Between 18th Ave/Slaughter House/Exit 95 and Butte CR Rd/Exit 105 - Jackknifed articulated truck.
2,2020-10-18 21:27:57,45.6624,-110.7066,Livingston,MT,,I-90 E,Incident on I-90 EB near MM 316 Drive with caution.
4,2019-10-09 19:07:36,45.6443,-110.5726,Livingston,MT,,I-90 E,Closed between I-90-BL/US-10/Exit 330 and I-90-BL/Exit 337 - Road closed due to accident. Two lanes blocked.
2,2020-12-24 09:14:51,48.4604,-114.3716,Whitefish,MT,2, Wolverine Trl,Incident on REST HAVEN DR near LAKESHORE DR Drive with caution.
2,2020-12-10 02:35:36,45.9319,-108.2275,Worden,MT,,Railroad Hwy,Incident on RAILROAD HWY near 10TH RD Expect delays.
2,2020-11-13 16:06:17,45.8311,-111.1184,Belgrade,MT,3251, Hamilton Rd,Incident on HAMILTON RD near RECTOR RD Drive with caution.
2,2017-12-18 16:43:25,48.2656,-113.4456,Essex,MT,15708, US Highway 2 E,At Glacier RT One/Going to the Sun Hwy - Accident. Jackknifed articulated truck.
2,2020-12-21 03:31:39,47.4656,-111.4395,Great Falls,MT,98, High Plains Rd,Incident on HIGH PLAINS RD near POLISH RD Drive with caution.
2,2019-03-29 15:32:19,47.0354,-114.0875,Missoula,MT,17155, US Highway 93 N,At Mercer Ln - Accident. Lane blocked.
2,2020-11-16 07:58:15,45.6683,-108.7908,Laurel,MT,1333, Old Highway 10 W,Incident on OLD HIGHWAY 10 near FIGGINS CIR Drive with caution.
2,2017-07-28 14:28:06,46.3761,-112.7358,Deer Lodge,MT,,I-90 E,Between I-90-BR/Exit 187 and Racetrack Rd/Exit 195 - Accident.
2,2020-10-25 03:19:30,45.6668,-108.7512,Laurel,MT,,I-90 W,Slow traffic on I-90 from I-90/Exit 437 (I-90) to I-90/Exit 433 (I-90) due to accident.
2,2020-11-24 13:52:06,45.8244,-108.3853,Billings,MT,,I-90 W,Incident on I-90 WB near DICKIE RD Drive with caution.
2,2020-11-06 18:57:10,45.6477,-111.3514,Bozeman,MT,,Axtell Anceny Rd,Incident on AXTELL ANCENY RD near NORRIS RD Drive with caution.
2,2020-12-22 01:40:40,45.6711,-111.1812,Bozeman,MT,,Huffine Ln,Incident on HUFFINE LN near ARROWHEAD TRL Drive with caution.
2,2020-11-10 19:45:45,47.5495,-111.4961,Great Falls,MT,216, Vaughn South Frontage Rd,Incident on VAUGHN SOUTH FRONTAGE RD near CLEVELAND DR Drive with caution.
2,2020-11-28 02:16:27,46.3706,-114.1433,Victor,MT,107, Bear Creek Rd,Incident on BEAR CREEK RD near US-93 Drive with caution.
2,2020-10-19 13:34:19,45.6622,-108.8024,Laurel,MT,,I-90 W,Incident on I-90 WB near POPE RD Drive with caution.
2,2016-07-14 15:26:52,46.0055,-114.1664,Darby,MT,3698, US Highway 93,At MT-43 - Accident.
2,2020-11-09 21:37:08,46.0442,-114.1825,Darby,MT,100, Sk Ln,Incident on OVERTURF RD near OLD DARBY RD Drive with caution.
2,2020-09-22 20:15:56,47.8867,-112.2654,Choteau,MT,5012, US Highway 89,Incident on US-89 near GUTHRIE LN Drive with caution.
2,2020-11-12 03:15:50,45.9619,-108.077,Ballantine,MT,,I-94 E,Incident on I-94 EB near LOWER CANAL RD Expect delays.
2,2020-12-13 04:13:27,46.9004,-114.1345,Missoula,MT,9950, Kona Ranch Rd,Incident on KONA RANCH RD near MULLAN RD Drive with caution.
2,2020-10-11 23:37:55.000000000,48.1749,-114.1318,Kalispell,MT,525, Riverside Rd,Incident on RIVERSIDE RD near OBRYAN LN Expect delays.
2,2020-11-26 02:21:53,47.2696,-111.7082,Cascade,MT,,I-15 S,Incident on I-15 SB near MM 254 Drive with caution.
3,2018-12-25 12:05:18,46.1096,-108.4612,Shepherd,MT,16648, US Highway 87 N,At Broadview - Accident. Single alternate lane traffic.
2,2020-12-22 14:21:37,48.3709,-114.3467,Whitefish,MT,1, Crane Marsh Way,Incident on BLANCHARD LAKE RD near CRANE MARSH WAY Expect delays.
2,2020-12-24 21:43:40,48.8504,-115.1337,Rexford,MT,4946, Othorp Lake Rd,Incident on OTHORP LAKE RD near NFD ROAD 3420 Drive with caution.
2,2020-10-30 02:59:52,47.4671,-111.3093,Great Falls,MT,3648, Marlie Dr,Incident on SHARON DR near MARLIE DR Drive with caution.
2,2020-11-15 20:44:12,45.7983,-108.4345,Billings,MT,2, Piccolo Ln,Incident on PICCOLO LN near US-87 Drive with caution.
2,2019-02-09 10:15:17,47.0292,-114.1005,Missoula,MT,16553, US Highway 93 N,At Evaro Rd - Accident. Right lane blocked. Blowing snow.
2,2020-12-24 19:01:23,48.3045,-109.9358,Box Elder,MT,2898, Lower Box Elder Rd,Incident on LOWER BOX ELDER RD near WINGFOOT RD Expect delays.
2,2020-10-26 00:06:50,45.7253,-109.5466,Reed Point,MT,198, Broadwater Rd,Incident on REED POINT RD near RETIREMENT RD Drive with caution.
3,2018-12-12 06:51:03,47.0318,-114.319,Huson,MT,,I-90 W,At Frenchtown Frontage Rd/Exit 85 - Accident. Two lanes blocked. Roadway reduced to 1 lane.
2,2020-12-25 00:48:51.000000000,45.8774,-112.1175,Whitehall,MT,,Skyline Dr,Incident on CENTURION WAY near CHEROKEE PL Drive with caution.
2,2020-12-10 01:35:02,46.5864,-111.9094,East Helena,MT,3515, E US Highway 12,Incident on ROUTE 518 near US-12 Drive with caution.
2,2020-12-16 08:32:03,47.3508,-115.2913,Saint Regis,MT,,I-90 E,Incident on I-90 EB near MM 18 Drive with caution.
2,2020-12-17 14:44:04,47.1658,-104.7018,Glendive,MT,454, Highway 16,Incident on ROAD 564 near HIGHWAY 16 Drive with caution.
2,2020-10-29 13:08:52,48.1909,-114.3306,Kalispell,MT,498, S Meridian Rd,Incident on MERIDIAN RD near 5TH AVE Drive with caution.
2,2020-10-12 02:49:55,48.1978,-112.505,Valier,MT,,US Highway 89,Incident on US-89 near SWIFT DAM RD Drive with caution.
2,2020-10-24 06:31:05.000000000,48.182,-114.4133,Kalispell,MT,2600, US Highway 2 W,Incident on WHALEBONE DR near US-2 Drive with caution.
2,2020-12-24 02:01:40,46.7282,-113.6584,Clinton,MT,,Interstate 90,Incident on I-90 WB near INTERSTATE 90 Expect delays.
2,2020-12-23 18:55:40,45.2105,-112.6515,Dillon,MT,,I-15 S,Incident on I-15 SB near MM 62 Drive with caution.
2,2020-12-14 14:20:30,45.7714,-108.4872,Billings,MT,,I-90 W,Slow traffic on US-212 W - I-90 W from I-90 Bus/US-87/Exit 452 (I-90) to Zoo Dr/Exit 443 (I-90) due to accident.
2,2020-12-20 15:39:17,48.0613,-114.0733,Bigfork,MT,442, Electric Ave,Incident on ELECTRIC AVE near RIVER ST Drive with caution.
2,2020-10-25 21:50:09,45.8555,-108.3642,Huntley,MT,,I-94 W,Incident on I-94 WB near DICKIE RD Drive with caution.
2,2020-12-14 16:16:13,45.6468,-110.889,Bozeman,MT,,US-191 S,Incident on I-90 WB near MM 313 Drive with caution.
2,2020-10-09 02:46:54,45.9322,-108.1677,Ballantine,MT,,I-94 W,Incident on I-94 WB near 8TH RD Drive with caution.
2,2020-12-14 15:58:03,45.7387,-108.5903,Billings,MT,,I-90 E,Incident on I-90 EB near US-212 Drive with caution.
2,2017-01-12 19:38:14,47.6322,-114.626,Hot Springs,MT,2452, MT Highway 28,At Chisolm Rd - Accident.
2,2020-12-06 14:52:25,46.6367,-114.5817,Lolo,MT,44847, Lolo Creek Rd,Incident on US-12 near LOLO CREEK RD Drive with caution.
2,2020-10-26 09:21:30,45.83,-112.055,Silver Star,MT,398, Kountz Rd,Incident on POINT OF ROCKS RD near KOUNTZ RD Drive with caution.
2,2020-09-15 19:30:32,47.4426,-114.097,Charlo,MT,40998, US Highway 93,Incident on US-93 near MT-212 Expect delays.
2,2020-11-14 04:31:09,48.4866,-115.9111,Troy,MT,2, Valley Dr,Incident on VALLEY DR near US-2 Drive with caution.
2,2020-11-11 03:01:08,45.7709,-111.248,Bozeman,MT,2696, Linney Rd,Incident on LINNEY RD near AMSTERDAM RD Drive with caution.
2,2020-12-12 23:32:00,45.7953,-108.461,Billings,MT,,I-90 W,Stationary traffic on US-212 W - I-90 W from I-90 Bus/US-87/Exit 452 (I-90) to MT-3/S 27th St/Exit 450 (I-90) due to accident.
4,2017-11-04 08:53:42,47.2359,-114.1579,Arlee,MT,86166, US Highway 93,Closed at US-93 - Road closed due to accident.
2,2020-10-18 16:39:57,45.6653,-108.7577,Laurel,MT,,US-212 E,Incident on I-90 EB near STOCKYARD RD Expect delays.
2,2020-12-15 06:49:29,48.1328,-110.2894,Big Sandy,MT,2477, Blankenbaker Rd,Incident on HOMESTEADER LN near BLANKENBAKER RD Expect delays.
2,2020-12-27 17:39:54.000000000,45.5937,-107.4605,Crow Agency,MT,,I-90 E,Incident on I-90 EB near US-212 Expect delays.
2,2020-11-25 15:28:00,45.6886,-111.0463,Bozeman,MT,823, N 7th Ave,Stationary traffic from I-90 (I-90 Bus Loop/N 7th Ave) to US-191/W Main St (I-90 Bus Loop/N 7th Ave) due to accident.
2,2020-12-13 02:38:03,46.6236,-111.8087,East Helena,MT,,Peggy Jo Ct,Incident on EAMES LN near CANYON FERRY RD Drive with caution.
2,2020-11-23 16:07:06,48.1812,-114.4147,Kalispell,MT,2635, US Highway 2 W,Incident on US-2 near MARQUARDT LN Expect delays.
2,2020-11-08 22:38:27,45.7133,-110.4008,Livingston,MT,,US-191 N,Incident on I-90 EB near MM 340 Drive with caution.
2,2020-11-11 20:22:08,48.1199,-114.028,Bigfork,MT,784, Echo Lake Rd,Incident on ECHO LAKE RD near FOOTHILL RD Drive with caution.
2,2020-10-02 12:13:29,46.3973,-112.7173,Deer Lodge,MT,1162, Milwaukee Ave,Incident on I-90 WB near MILWAUKEE AVE Drive with caution.
2,2020-11-03 22:21:54,47.0034,-104.8375,Glendive,MT,,I-94 E,Incident on I-94 EB near MM 204 Drive with caution.
2,2016-11-17 09:39:24,47.5466,-111.4553,Great Falls,MT,,US-89 S,At Manchester Rd/Exit 286 - Accident.
2,2020-11-15 08:55:12,48.101,-114.4846,Kila,MT,5300, US Highway 2 W,Incident on JACKSON MEADOWS RD near US-2 Drive with caution.
2,2020-11-08 22:43:10,45.6617,-110.7442,Livingston,MT,,I-90 E,Incident on I-90 EB near MM 324 Drive with caution.
2,2020-11-11 21:58:08,46.4842,-112.0364,Clancy,MT,,Lump Gulch Rd,Incident on LUMP GULCH RD near SHEEP MOUNTAIN RD Drive with caution.
2,2020-12-18 03:22:33,46.9538,-114.1356,Missoula,MT,,I-90 E,Incident on I-90 EB near MT-200 Drive with caution.
2,2020-12-01 01:24:28,45.9966,-112.6533,Butte,MT,,I-15 S,Incident on I-15 SB near JUNIPER ACRES RD Drive with caution.
2,2020-10-24 01:49:06,47.5648,-114.1987,Ronan,MT,44584, Back Rd,Incident on BACK RD near STINGER RD Expect delays.
2,2020-11-11 18:43:08,46.9545,-112.106,Wolf Creek,MT,,I-15 N,Incident on I-15 NB near US-287 Drive with caution.
2,2020-11-21 05:46:05,48.5844,-109.1011,Chinook,MT,,US Highway 2,Incident on US-2 near FORK RD Drive with caution.
2,2020-12-04 01:50:48,46.8855,-114.0809,Missoula,MT,6101, Mullan Rd,Incident on MULLAN RD near SHINDIG DR Drive with caution.
2,2020-12-08 15:46:00,47.49,-111.2069,Malmstrom AFB,MT,8985, US Highway 89,Incident on US-89 NB near 57TH ST Right lane blocked. Expect delays.
2,2017-01-10 10:21:49,46.3839,-111.5704,Townsend,MT,7237, US Highway 287,At Springville Ln - Accident.
2,2020-11-05 00:44:51,45.559,-108.8582,Joliet,MT,,Farewell Rd,Incident on US-310 near US-212 Expect delays.
2,2020-11-21 02:36:53,45.9183,-106.6444,Forsyth,MT,2663, Highway 39,Incident on MT-39 near PINEBUTTE DR Drive with caution.
2,2020-11-26 16:31:18.000000000,48.4956,-111.9912,Shelby,MT,598, Heath Rd,Incident on HEATH RD near HJARTARSON RD Drive with caution.
2,2020-12-17 20:32:00,47.0099,-113.0605,Ovando,MT,4898, State Highway 200,Incident on MT-200 WB near THOMPSON FALLS Road closed. Take alternate route.
2,2019-11-06 13:59:30,45.7831,-108.0441,Pompeys Pillar,MT,,I-90 W,At Arrow CR Rd/Exit 469 - Accident. Black ice. Roadway reduced to 1 lane. Lane blocked.
2,2020-09-20 03:00:39,46.8273,-114.0354,Missoula,MT,4802, 23rd Ave,Incident on 23RD AVE near GARLAND DR Drive with caution.
4,2018-02-23 18:30:13,48.4195,-113.2167,East Glacier Park,MT,20754, US Highway 2,Closed at Glacier RT One/Going to the Sun Hwy - Road closed due to accident.
3,2018-02-05 08:52:00,46.4262,-105.7868,Miles City,MT,,I-94 W,Accident on I-94 Eastbound at US-12.
2,2020-12-07 14:04:00,45.7962,-108.4653,Billings,MT,825, US Highway 87 E,Stationary traffic on US-87 N - I-90 Bus W - US-87 S - I-90 Bus E from Montana Rail Link to N 9th St due to accident.
2,2020-11-09 03:07:27,48.273,-114.3147,Kalispell,MT,388, Tronstad Rd,Incident on TRONSTAD RD near WHITEFISH STAGE Drive with caution.
2,2020-11-12 00:17:24,45.8125,-108.4139,Billings,MT,900, Johnson Ln,Incident on OLD HARDIN RD near JOHNSON LN Drive with caution.
2,2020-10-23 15:01:05,48.2209,-114.2772,Kalispell,MT,2131, US Highway 2 E,Incident on US-2 near BANDO LN Drive with caution.
2,2020-12-19 20:34:39,44.675,-111.2747,West Yellowstone,MT,,Targhee Pass Hwy,Incident on TARGHEE PASS HWY near US-20 Drive with caution.
2,2019-02-14 08:04:02,47.1146,-113.4398,Seeley Lake,MT,2604, MT Highway 83 N,At MT-200 - Accident.
2,2020-11-29 23:49:28.000000000,48.3707,-114.3117,Columbia Falls,MT,4404, Highway 40 W,Incident on MT-40 near WHITEFISH STAGE Drive with caution.
2,2020-11-29 23:21:12,47.0827,-104.7806,Glendive,MT,,I-94 E,Incident on I-94 EB near MM 210 Drive with caution.
2,2020-12-01 17:10:07,46.8742,-114.0435,Missoula,MT,2652, Hamilton Way,Incident on HAMILTON WAY near RODERICK WAY Drive with caution.
2,2020-10-24 22:53:00,45.6618,-108.7848,Laurel,MT,,I-90 E,Slow traffic on I-90 from I-90/Exit 433 (I-90) to I-90/Exit 437 (I-90) due to accident.
2,2020-12-06 05:55:30,47.3847,-114.0949,Saint Ignatius,MT,34832, Red Horn Rd,Incident on RED HORN RD near US-93 Drive with caution.
2,2018-01-10 08:28:25,45.6575,-109.2921,Big Timber,MT,,I-90 E,At MT-78/Exit 408 - Accident.
2,2020-10-25 20:00:50,46.6056,-113.0013,Gold Creek,MT,,I-90 W,Incident on I-90 WB near MM 162 Drive with caution.
2,2020-10-21 06:52:04,45.054,-107.3368,Wyola,MT,,I-90 W,Incident on I-90 WB near MM 549 Drive with caution.
2,2020-11-15 20:46:12,46.9741,-113.9955,Missoula,MT,10802, Grant Creek Rd,Incident on GRANT CREEK RD near BENCH RD Drive with caution.
2,2020-11-11 17:46:08,46.0072,-112.6492,Butte,MT,,I-90 E,Incident on I-90 EB near MM 219 Drive with caution.
2,2020-12-03 17:29:25,47.3661,-110.8836,Belt,MT,5, Cora Creek Rd,Incident on CORA CREEK RD near WILLOW CREEK RD Drive with caution.
2,2020-11-12 17:31:09,48.3817,-114.4389,Whitefish,MT,529, Twin Bridges Rd,Incident on TWIN BRIDGES RD near KM RANCH RD Drive with caution.
2,2020-12-03 17:29:25,47.3463,-110.813,Belt,MT,337, Cora Creek Rd,Incident on CORA CREEK RD near GEYSER RD Drive with caution.
2,2020-11-29 15:52:28,48.4135,-114.3368,Whitefish,MT,508, Depot St,Incident on DEPOT ST near SPOKANE AVE Expect delays.
2,2020-10-24 22:07:07,46.01,-112.6894,Butte,MT,,I-90 E,Incident on I-90 EB near MM 216 Drive with caution.
2,2020-11-07 00:35:24,47.1553,-111.8443,Cascade,MT,,I-15 S,Incident on I-15 SB near MM 244 Expect delays.
2,2020-11-11 23:57:23,45.7439,-108.5795,Billings,MT,,I-90 E,Incident on I-90 EB near US-212 Drive with caution.
2,2020-12-12 18:35:04,47.5729,-111.5448,Power,MT,,I-15 N,Incident on I-15 NB near NEUMAN SCHOOL RD Drive with caution.
2,2019-05-14 09:30:43,47.3828,-115.3943,Saltese,MT,,I-90 W,At Haugan Rd/Exit 16 - Accident. Left lane blocked. Roadway reduced to 1 lane.
2,2020-11-21 23:43:05.000000000,47.4814,-111.348,Great Falls,MT,,I-15 S,Incident on I-15 SB near MM 278 Expect delays.
2,2020-12-31 15:43:04,45.7727,-111.1979,Belgrade,MT,,Amsterdam Rd,Incident on AMSTERDAM RD near BUSINESS HUB DR Drive with caution.
2,2020-10-29 17:35:59,46.5339,-114.0649,Stevensville,MT,315, Stevensville Airport Rd,Incident on STEVENSVILLE AIRPORT RD near AIRPORT RD Drive with caution.
2,2020-12-12 00:38:02,47.2829,-111.695,Cascade,MT,,I-15 S,Incident on I-15 SB near MM 256 Expect delays.
2,2020-09-30 06:29:10,48.2001,-114.2015,Kalispell,MT,99, Tatonka Trl,Incident on MONTFORD RD near TATONKA TRL Drive with caution.
2,2020-11-29 23:49:28,48.3707,-114.3117,Columbia Falls,MT,4404, Highway 40 W,Incident on MT-40 near WHITEFISH STAGE Drive with caution.
2,2020-12-30 15:07:45,45.6648,-111.2692,Bozeman,MT,24900, Norris Rd,Incident on NORRIS RD near CHURCHILL RD Drive with caution.
2,2020-10-18 13:48:57,45.7493,-108.5604,Billings,MT,,I-90 W,Incident on I-90 WB near MM 455 Drive with caution.
2,2020-12-08 22:19:31,46.8287,-113.9697,Missoula,MT,4600, Arnica Rd,Incident on PATTEE CANYON RD near ARNICA RD Drive with caution.
2,2016-08-08 15:48:49,47.5595,-111.5304,Power,MT,,MT-200,Between US-89/MT-200/Exit 290 and Anderson Rd/Exit 297 - Accident.
2,2020-11-11 23:19:20.000000000,46.9358,-114.1217,Missoula,MT,9051, Roller Coaster Rd,Incident on ROLLER COASTER RD near EL WAY Drive with caution.
2,2020-12-13 02:08:02,48.0714,-114.0932,Bigfork,MT,251, Chapman Hill Rd,Incident on CHAPMAN HILL DR near HOGUE DR Drive with caution.
2,2020-11-12 21:49:09,45.9357,-111.4541,Three Forks,MT,3396, Clarkston Rd,Incident on CLARKSTON RD near LOGAN TRIDENT RD Drive with caution.
2,2020-10-26 15:06:50,46.197,-114.1484,Hamilton,MT,295, Skalkaho Hwy,Incident on SKALKAHO HWY near MUSTANG LN Drive with caution.
2,2018-07-27 14:29:50,45.6364,-108.7664,Laurel,MT,2259,US Highway 212 S,Accident on US-212 Southbound at Byam Rd.
2,2020-10-24 07:48:30.000000000,46.6192,-111.9887,Helena,MT,2027, York Rd,Incident on YORK RD near TOOLE DR Drive with caution.
2,2020-12-06 06:45:37,48.0413,-114.874,Marion,MT,13014, US Highway 2 W,Incident on US-2 near VIOLET BAY DR Drive with caution.
2,2020-10-18 01:51:57,46.562,-112.8849,Gold Creek,MT,,I-90 W,Incident on I-90 WB near MM 170 Drive with caution.
2,2020-10-18 02:13:30,45.7848,-108.4818,Billings,MT,,I-90 E,Stationary traffic on I-90 from MT-3/S 27th St/Exit 450 (I-90) to I-90 Bus/US-87/Exit 452 (I-90) due to accident.
2,2020-12-12 18:35:04,47.5729,-111.5448,Power,MT,,I-15 N,Incident on I-15 NB near NEUMAN SCHOOL RD Expect delays.
2,2019-02-26 10:51:48,45.662,-110.7438,Livingston,MT,,I-90 W,Between Exit 324 and Jackson Crk Road/Exit 319 - Accident. Lane blocked.
2,2020-12-13 02:17:02,48.4493,-115.8793,Troy,MT,15601, US Highway 2,Incident on US-2 near LAKE CREEK RD Drive with caution.
2,2020-12-17 01:33:34,45.7294,-111.1304,Bozeman,MT,2, Kirsha Ln,Incident on VALLEY CENTER RD near BISON TRL Drive with caution.
2,2016-08-01 09:55:45,44.5601,-112.3214,Lima,MT,,I-15 S,At MT-509/Exit 0 - Accident.
2,2020-10-11 22:46:02,46.6367,-114.5817,Lolo,MT,44847, Lolo Creek Rd,Incident on US-12 near LOLO CREEK RD Drive with caution.
2,2020-11-23 22:37:06,48.452,-114.506,Whitefish,MT,8279, Farm To Market Rd,Incident on STAR MEADOW RD near FARM TO MARKET RD Drive with caution.
2,2020-10-22 15:03:27,45.8819,-108.314,Huntley,MT,,I-94 W,Incident on I-94 WB near MM 6 Drive with caution.
2,2020-11-09 00:23:27,45.8953,-113.8222,Sula,MT,1985, E Fork Rd,Incident on FORK RD near JENNINGS CAMPGROUND Drive with caution.
2,2020-12-28 21:28:43,48.3707,-114.241,Columbia Falls,MT,6198, US Highway 2 W,Incident on US-2 near MT-40 Drive with caution.
2,2020-12-09 20:43:20,45.7254,-108.6171,Billings,MT,,Autumn Ln,Incident on FRONTAGE RD near WISE LN Drive with caution.
2,2020-12-20 00:56:33,47.861,-112.2616,Choteau,MT,4899, US Highway 89,Incident on TETON CANYON RD near US-89 Drive with caution.
2,2019-08-29 11:22:11,45.6414,-108.8859,Park City,MT,,I-90 W,At Old US-10/Exit 426 - Accident. Roadway reduced to 1 lane. Lane blocked.
2,2020-11-17 16:22:13,46.9553,-114.0077,Missoula,MT,801, Rankin Rd,Incident on GRANT CREEK RD near MELLOT LN Drive with caution.
2,2020-12-11 21:44:02.000000000,46.8888,-114.0962,Missoula,MT,7299, Mullan Rd,Incident on MULLAN RD near KOOTENAI DR Expect delays.
2,2020-12-12 22:29:37,46.4981,-113.9983,Stevensville,MT,1054, Middle Burnt Fork Rd,Incident on MIDDLE BURNT FORK RD near IRON CAP DR Drive with caution.
2,2020-12-12 06:03:12,48.0727,-114.0794,Bigfork,MT,8111, MT Highway 35,Incident on MT-35 near PEACEFUL DR Drive with caution.
2,2020-11-09 00:41:27,46.8793,-113.9042,Missoula,MT,,I-90 W,Incident on I-90 WB near MM 109 Drive with caution.
2,2020-10-22 15:16:00,45.8915,-108.2942,Huntley,MT,,I-94 W,Slow traffic on I-94 from Arrow Creek Rd/Exit 14 (I-94) to I-90/Exit 0 (I-94) due to accident.
2,2020-11-11 04:46:08,48.3357,-114.5228,Kalispell,MT,1813, Mountain Meadow Rd,Incident on MOUNTAIN MEADOW RD near NFD ROAD 542 Drive with caution.
2,2020-12-23 10:49:40,45.2034,-108.9768,Bearcreek,MT,1499, Highway 72,Incident on MT-72 near DRY CREEK RD Expect delays.
2,2017-01-12 19:05:09,46.9176,-112.12,Wolf Creek,MT,,I-15 N,Between Recreation Rd/Exit 219 and Lyon's Creek Rest Area - Accident.
2,2020-11-06 02:11:23,46.6696,-112.0213,Helena,MT,6701, N Montana Ave,Incident on MONTANA AVE near CRESTWOOD LN Drive with caution.
2,2017-02-01 11:49:01,46.0075,-112.6177,Butte,MT,,I-15 N,Between MT-276/Exit 122 and I-115/Exit 124 - Accident.
2,2018-05-03 05:49:55,45.7863,-112.8901,Divide,MT,,MT Highway 43,At NF-73/Wise River Polaris Rd - Accident. Single alternate lane traffic.
2,2020-10-27 02:57:00,45.9568,-112.4697,Butte,MT,,I-90 W,Stationary traffic on I-90 from Exit 233 (I-90) to I-15/Exit 227 (I-90) due to accident.
2,2020-11-25 09:34:06,46.9473,-114.124,Missoula,MT,,I-90 W,Incident on I-90 WB near MM 96 Drive with caution.
2,2020-10-25 10:33:27,46.5935,-112.0001,Helena,MT,,US-287 N,Incident on I-15 NB near MM 192 Drive with caution.
2,2020-11-28 05:01:27,48.532,-109.7507,Havre,MT,5563, US Highway 87 W,Incident on US-87 near OLD POST RD Drive with caution.
2,2020-10-24 02:32:01.000000000,46.814,-114.0456,Missoula,MT,6056, Miller Creek Rd,Incident on MILLER CREEK RD near MEADOWWOOD LN Drive with caution.
2,2020-11-02 01:34:38.000000000,46.3344,-114.0565,Corvallis,MT,,Peppergrass Ln,Incident on WILD APPLE LN near PEPPERGRASS LN Drive with caution.
2,2018-03-29 07:39:24,47.2635,-110.7147,Raynesford,MT,11701, US Highway 87,At CR-221/CR-100/4th St N/Dry Wold Rd - Accident. Lane blocked.
2,2020-10-14 04:02:30,46.233,-112.7669,Deer Lodge,MT,,I-90 W,Stationary traffic on I-90 from MT-48/Exit 201 (I-90) to CR-273/Exit 197 (I-90) due to accident.
2,2020-12-31 10:16:46,44.667,-111.1321,West Yellowstone,MT,7787, Targhee Pass Hwy,Incident on TARGHEE PASS HWY near NFS ROAD 1730 Drive with caution.
2,2020-11-15 00:08:17,46.724,-112.0278,Helena,MT,898, Pollux Rd,Incident on EAGLE DR near STAR RD Drive with caution.
2,2020-10-23 02:34:42,45.8698,-107.6113,Hardin,MT,,MT Highway 47,Incident on MT-47 near STATE HIGHWAY 47 Drive with caution.
2,2020-11-01 07:51:01,45.5232,-109.4511,Absarokee,MT,14, Stillwater River Rd,Incident on STILLWATER RIVER RD near CIRCLE T LN Drive with caution.
2,2020-12-14 18:23:03,45.675,-111.0101,Bozeman,MT,,I-90 W,Incident on I-90 WB near MM 309 Drive with caution.
